$GPGGA,050300.00,3542.76521388,N,05121.41639424,E,2,37,0.5,1256.450,M,-14.898,M,5.0,0123*5B
$GPGGA,050301.00,3542.76521429,N,05121.41639289,E,2,37,0.5,1256.453,M,-14.898,M,5.0,0123*54
$GPGGA,050302.00,3542.76521463,N,05121.41639132,E,2,37,0.5,1256.457,M,-14.898,M,4.0,0123*5F
$GPGGA,050303.00,3542.76521457,N,05121.41639028,E,2,37,0.5,1256.461,M,-14.898,M,5.0,0123*57
$GPGGA,050304.00,3542.76521421,N,05121.41638897,E,2,37,0.5,1256.463,M,-14.898,M,5.0,0123*5E
$GPGGA,050305.00,3542.76521390,N,05121.41638815,E,2,37,0.5,1256.467,M,-14.898,M,5.0,0123*5C
$GPGGA,050306.00,3542.76521372,N,05121.41638718,E,2,37,0.5,1256.470,M,-14.898,M,4.0,0123*56
$GPGGA,050307.00,3542.76521398,N,05121.41638612,E,2,37,0.5,1256.475,M,-14.898,M,5.0,0123*5C
$GPGGA,050308.00,3542.76521351,N,05121.41638500,E,2,37,0.5,1256.479,M,-14.898,M,5.0,0123*5A
$GPGGA,050309.00,3542.76521318,N,05121.41638428,E,2,37,0.5,1256.482,M,-14.898,M,5.0,0123*59
$GPGGA,050310.00,3542.76521285,N,05121.41638322,E,2,37,0.5,1256.484,M,-14.898,M,4.0,0123*5E
$GPGGA,050311.00,3542.76521241,N,05121.41638197,E,2,37,0.5,1256.485,M,-14.898,M,5.0,0123*5B
$GPGGA,050312.00,3542.76521285,N,05121.41638081,E,2,37,0.5,1256.489,M,-14.898,M,5.0,0123*5A
$GPGGA,050313.00,3542.76521297,N,05121.41637982,E,2,37,0.5,1256.493,M,-14.898,M,5.0,0123*56
$GPGGA,050314.00,3542.76521254,N,05121.41637920,E,2,37,0.5,1256.496,M,-14.898,M,4.0,0123*52
$GPGGA,050315.00,3542.76521272,N,05121.41637793,E,2,37,0.5,1256.498,M,-14.898,M,5.0,0123*5E
$GPGGA,050316.00,3542.76521251,N,05121.41637725,E,2,37,0.5,1256.502,M,-14.898,M,5.0,0123*53
$GPGGA,050317.00,3542.76521262,N,05121.41637687,E,2,37,0.5,1256.507,M,-14.898,M,5.0,0123*5E
$GPGGA,050318.00,3542.76521252,N,05121.41637614,E,2,37,0.5,1256.514,M,-14.898,M,4.0,0123*5B
$GPGGA,050319.00,3542.76521246,N,05121.41637471,E,2,37,0.5,1256.518,M,-14.898,M,5.0,0123*53
$GPGGA,050320.00,3542.76521240,N,05121.41637394,E,2,37,0.5,1256.520,M,-14.898,M,5.0,0123*58
$GPGGA,050321.00,3542.76521283,N,05121.41637303,E,2,37,0.5,1256.523,M,-14.898,M,5.0,0123*5B
$GPGGA,050322.00,3542.76521350,N,05121.41637194,E,2,37,0.5,1256.527,M,-14.898,M,4.0,0123*5E
$GPGGA,050323.00,3542.76521406,N,05121.41637069,E,2,37,0.5,1256.530,M,-14.898,M,5.0,0123*5F
$GPGGA,050324.00,3542.76521396,N,05121.41636979,E,2,37,0.5,1256.535,M,-14.898,M,5.0,0123*5A
$GPGGA,050325.00,3542.76521410,N,05121.41636900,E,2,37,0.5,1256.538,M,-14.898,M,5.0,0123*51
$GPGGA,050326.00,3542.76521395,N,05121.41636862,E,2,37,0.5,1256.539,M,-14.898,M,4.0,0123*5D
$GPGGA,050327.00,3542.76521436,N,05121.41636777,E,2,37,0.5,1256.543,M,-14.898,M,5.0,0123*55
$GPGGA,050328.00,3542.76521491,N,05121.41636697,E,2,37,0.5,1256.548,M,-14.898,M,5.0,0123*53
$GPGGA,050329.00,3542.76521486,N,05121.41636571,E,2,37,0.5,1256.551,M,-14.898,M,5.0,0123*57
$GPGGA,050330.00,3542.76521466,N,05121.41636494,E,2,37,0.5,1256.556,M,-14.898,M,4.0,0123*5D
$GPGGA,050331.00,3542.76521468,N,05121.41636382,E,2,37,0.5,1256.562,M,-14.898,M,5.0,0123*54
$GPGGA,050332.00,3542.76521446,N,05121.41636338,E,2,37,0.5,1256.565,M,-14.898,M,5.0,0123*5D
$GPGGA,050333.00,3542.76521465,N,05121.41636313,E,2,37,0.5,1256.569,M,-14.898,M,5.0,0123*58
$GPGGA,050334.00,3542.76521433,N,05121.41636229,E,2,37,0.5,1256.573,M,-14.898,M,4.0,0123*5E
$GPGGA,050335.00,3542.76521373,N,05121.41636142,E,2,37,0.5,1256.577,M,-14.898,M,5.0,0123*57
$GPGGA,050336.00,3542.76521294,N,05121.41636107,E,2,37,0.5,1256.582,M,-14.898,M,5.0,0123*57
$GPGGA,050337.00,3542.76521283,N,05121.41636038,E,2,37,0.5,1256.586,M,-14.898,M,5.0,0123*59
$GPGGA,050338.00,3542.76521255,N,05121.41635968,E,2,37,0.5,1256.590,M,-14.898,M,4.0,0123*54
$GPGGA,050339.00,3542.76521250,N,05121.41635947,E,2,37,0.5,1256.594,M,-14.898,M,5.0,0123*58
$GPGGA,050340.00,3542.76521259,N,05121.41635907,E,2,37,0.5,1256.597,M,-14.898,M,5.0,0123*58
$GPGGA,050341.00,3542.76521278,N,05121.41635850,E,2,37,0.5,1256.598,M,-14.898,M,5.0,0123*56
$GPGGA,050342.00,3542.76521267,N,05121.41635829,E,2,37,0.5,1256.599,M,-14.898,M,4.0,0123*55
$GPGGA,050343.00,3542.76521219,N,05121.41635806,E,2,37,0.5,1256.601,M,-14.898,M,5.0,0123*53
$GPGGA,050344.00,3542.76521123,N,05121.41635769,E,2,37,0.5,1256.604,M,-14.898,M,5.0,0123*5D
$GPGGA,050345.00,3542.76521098,N,05121.41635736,E,2,37,0.5,1256.606,M,-14.898,M,5.0,0123*55
$GPGGA,050346.00,3542.76521100,N,05121.41635707,E,2,37,0.5,1256.609,M,-14.898,M,4.0,0123*5A
$GPGGA,050347.00,3542.76521035,N,05121.41635729,E,2,37,0.5,1256.612,M,-14.898,M,5.0,0123*5B
$GPGGA,050348.00,3542.76520952,N,05121.41635717,E,2,37,0.5,1256.614,M,-14.898,M,5.0,0123*56
$GPGGA,050349.00,3542.76520876,N,05121.41635708,E,2,37,0.5,1256.617,M,-14.898,M,5.0,0123*5D
$GPGGA,050350.00,3542.76520853,N,05121.41635646,E,2,37,0.5,1256.618,M,-14.898,M,4.0,0123*57
$GPGGA,050351.00,3542.76520749,N,05121.41635620,E,2,37,0.5,1256.618,M,-14.898,M,5.0,0123*53
$GPGGA,050352.00,3542.76520668,N,05121.41635619,E,2,37,0.5,1256.620,M,-14.898,M,5.0,0123*53
$GPGGA,050353.00,3542.76520622,N,05121.41635600,E,2,37,0.5,1256.622,M,-14.898,M,5.0,0123*56
$GPGGA,050354.00,3542.76520607,N,05121.41635532,E,2,37,0.5,1256.624,M,-14.898,M,4.0,0123*53
$GPGGA,050355.00,3542.76520613,N,05121.41635445,E,2,37,0.5,1256.625,M,-14.898,M,5.0,0123*56
$GPGGA,050356.00,3542.76520561,N,05121.41635379,E,2,37,0.5,1256.627,M,-14.898,M,5.0,0123*59
$GPGGA,050357.00,3542.76520501,N,05121.41635355,E,2,37,0.5,1256.628,M,-14.898,M,5.0,0123*5F
$GPGGA,050358.00,3542.76520400,N,05121.41635322,E,2,37,0.5,1256.628,M,-14.898,M,4.0,0123*51
$GPGGA,050359.00,3542.76520398,N,05121.41635309,E,2,37,0.5,1256.631,M,-14.898,M,5.0,0123*56
