$GPGGA,050500.00,3542.76516855,N,05121.41634760,E,2,37,0.5,1256.686,M,-14.898,M,5.0,0123*55
$GPGGA,050501.00,3542.76516808,N,05121.41634755,E,2,37,0.5,1256.684,M,-14.898,M,5.0,0123*58
$GPGGA,050502.00,3542.76516767,N,05121.41634822,E,2,37,0.5,1256.684,M,-14.898,M,4.0,0123*53
$GPGGA,050503.00,3542.76516703,N,05121.41634869,E,2,37,0.5,1256.684,M,-14.898,M,5.0,0123*5E
$GPGGA,050504.00,3542.76516686,N,05121.41635001,E,2,37,0.5,1256.686,M,-14.898,M,5.0,0123*50
$GPGGA,050505.00,3542.76516735,N,05121.41635050,E,2,37,0.5,1256.690,M,-14.898,M,5.0,0123*5B
$GPGGA,050506.00,3542.76516742,N,05121.41635120,E,2,37,0.5,1256.691,M,-14.898,M,4.0,0123*5E
$GPGGA,050507.00,3542.76516835,N,05121.41635248,E,2,37,0.5,1256.694,M,-14.898,M,5.0,0123*59
$GPGGA,050508.00,3542.76516761,N,05121.41635311,E,2,37,0.5,1256.695,M,-14.898,M,5.0,0123*54
$GPGGA,050509.00,3542.76516728,N,05121.41635455,E,2,37,0.5,1256.698,M,-14.898,M,5.0,0123*52
$GPGGA,050510.00,3542.76516713,N,05121.41635545,E,2,37,0.5,1256.701,M,-14.898,M,4.0,0123*52
$GPGGA,050511.00,3542.76516639,N,05121.41635610,E,2,37,0.5,1256.704,M,-14.898,M,5.0,0123*5D
$GPGGA,050512.00,3542.76516643,N,05121.41635676,E,2,37,0.5,1256.706,M,-14.898,M,5.0,0123*51
$GPGGA,050513.00,3542.76516580,N,05121.41635799,E,2,37,0.5,1256.709,M,-14.898,M,5.0,0123*53
$GPGGA,050514.00,3542.76516530,N,05121.41635916,E,2,37,0.5,1256.713,M,-14.898,M,4.0,0123*5C
$GPGGA,050515.00,3542.76516492,N,05121.41636059,E,2,37,0.5,1256.716,M,-14.898,M,5.0,0123*51
$GPGGA,050516.00,3542.76516421,N,05121.41636114,E,2,37,0.5,1256.720,M,-14.898,M,5.0,0123*57
$GPGGA,050517.00,3542.76516392,N,05121.41636185,E,2,37,0.5,1256.722,M,-14.898,M,5.0,0123*53
$GPGGA,050518.00,3542.76516379,N,05121.41636250,E,2,37,0.5,1256.725,M,-14.898,M,4.0,0123*54
$GPGGA,050519.00,3542.76516307,N,05121.41636335,E,2,37,0.5,1256.726,M,-14.898,M,5.0,0123*5C
$GPGGA,050520.00,3542.76516304,N,05121.41636398,E,2,37,0.5,1256.730,M,-14.898,M,5.0,0123*55
$GPGGA,050521.00,3542.76516254,N,05121.41636535,E,2,37,0.5,1256.732,M,-14.898,M,5.0,0123*53
$GPGGA,050522.00,3542.76516236,N,05121.41636637,E,2,37,0.5,1256.736,M,-14.898,M,4.0,0123*50
$GPGGA,050523.00,3542.76516187,N,05121.41636774,E,2,37,0.5,1256.737,M,-14.898,M,5.0,0123*5E
$GPGGA,050524.00,3542.76516246,N,05121.41636873,E,2,37,0.5,1256.743,M,-14.898,M,5.0,0123*5C
$GPGGA,050525.00,3542.76516210,N,05121.41636976,E,2,37,0.5,1256.745,M,-14.898,M,5.0,0123*5C
$GPGGA,050526.00,3542.76516136,N,05121.41637032,E,2,37,0.5,1256.749,M,-14.898,M,4.0,0123*5D
$GPGGA,050527.00,3542.76516134,N,05121.41637088,E,2,37,0.5,1256.750,M,-14.898,M,5.0,0123*56
$GPGGA,050528.00,3542.76516095,N,05121.41637098,E,2,37,0.5,1256.753,M,-14.898,M,5.0,0123*51
$GPGGA,050529.00,3542.76516004,N,05121.41637136,E,2,37,0.5,1256.753,M,-14.898,M,5.0,0123*5D
$GPGGA,050530.00,3542.76515962,N,05121.41637123,E,2,37,0.5,1256.755,M,-14.898,M,4.0,0123*5C
$GPGGA,050531.00,3542.76515901,N,05121.41637128,E,2,37,0.5,1256.758,M,-14.898,M,5.0,0123*5F
$GPGGA,050532.00,3542.76515825,N,05121.41637193,E,2,37,0.5,1256.758,M,-14.898,M,5.0,0123*5B
$GPGGA,050533.00,3542.76515730,N,05121.41637140,E,2,37,0.4,1256.757,M,-14.898,M,5.0,0123*51
$GPGGA,050534.00,3542.76515631,N,05121.41637139,E,2,37,0.4,1256.755,M,-14.898,M,4.0,0123*5B
$GPGGA,050535.00,3542.76515532,N,05121.41637131,E,2,37,0.4,1256.754,M,-14.898,M,5.0,0123*52
$GPGGA,050536.00,3542.76515444,N,05121.41637100,E,2,37,0.4,1256.753,M,-14.898,M,5.0,0123*54
$GPGGA,050537.00,3542.76515322,N,05121.41637127,E,2,37,0.4,1256.750,M,-14.898,M,5.0,0123*54
$GPGGA,050538.00,3542.76515269,N,05121.41637073,E,2,37,0.4,1256.747,M,-14.898,M,4.0,0123*52
$GPGGA,050539.00,3542.76515202,N,05121.41637090,E,2,37,0.4,1256.746,M,-14.898,M,5.0,0123*53
$GPGGA,050540.00,3542.76515180,N,05121.41637083,E,2,37,0.4,1256.747,M,-14.898,M,5.0,0123*57
$GPGGA,050541.00,3542.76515090,N,05121.41637110,E,2,37,0.4,1256.747,M,-14.898,M,5.0,0123*5D
$GPGGA,050542.00,3542.76515005,N,05121.41637105,E,2,37,0.4,1256.746,M,-14.898,M,4.0,0123*56
$GPGGA,050543.00,3542.76514919,N,05121.41637063,E,2,37,0.4,1256.742,M,-14.898,M,5.0,0123*56
$GPGGA,050544.00,3542.76514845,N,05121.41637059,E,2,37,0.4,1256.740,M,-14.898,M,5.0,0123*52
$GPGGA,050545.00,3542.76514774,N,05121.41637071,E,2,37,0.4,1256.740,M,-14.898,M,5.0,0123*54
$GPGGA,050546.00,3542.76514735,N,05121.41637041,E,2,37,0.4,1256.739,M,-14.898,M,4.0,0123*5E
$GPGGA,050547.00,3542.76514735,N,05121.41636953,E,2,37,0.4,1256.737,M,-14.898,M,5.0,0123*5B
$GPGGA,050548.00,3542.76514699,N,05121.41636915,E,2,37,0.4,1256.734,M,-14.898,M,5.0,0123*52
$GPGGA,050549.00,3542.76514652,N,05121.41636878,E,2,37,0.4,1256.733,M,-14.898,M,5.0,0123*59
$GPGGA,050550.00,3542.76514608,N,05121.41636837,E,2,37,0.4,1256.734,M,-14.898,M,4.0,0123*53
$GPGGA,050551.00,3542.76514601,N,05121.41636866,E,2,37,0.4,1256.737,M,-14.898,M,5.0,0123*5D
$GPGGA,050552.00,3542.76514586,N,05121.41636847,E,2,37,0.4,1256.738,M,-14.898,M,5.0,0123*5E
$GPGGA,050553.00,3542.76514652,N,05121.41636877,E,2,37,0.4,1256.740,M,-14.898,M,5.0,0123*59
$GPGGA,050554.00,3542.76514644,N,05121.41636907,E,2,37,0.4,1256.744,M,-14.898,M,4.0,0123*5A
$GPGGA,050555.00,3542.76514619,N,05121.41636912,E,2,37,0.4,1256.746,M,-14.898,M,5.0,0123*54
$GPGGA,050556.00,3542.76514633,N,05121.41636898,E,2,37,0.4,1256.749,M,-14.898,M,5.0,0123*53
$GPGGA,050557.00,3542.76514639,N,05121.41636861,E,2,37,0.4,1256.749,M,-14.898,M,5.0,0123*5E
$GPGGA,050558.00,3542.76514635,N,05121.41636848,E,2,37,0.4,1256.746,M,-14.898,M,4.0,0123*58
$GPGGA,050559.00,3542.76514635,N,05121.41636862,E,2,37,0.4,1256.748,M,-14.898,M,5.0,0123*5E
