$GPGGA,050600.00,3542.76514587,N,05121.41636832,E,2,37,0.4,1256.744,M,-14.898,M,5.0,0123*52
$GPGGA,050601.00,3542.76514594,N,05121.41636795,E,2,37,0.4,1256.745,M,-14.898,M,5.0,0123*52
$GPGGA,050602.00,3542.76514532,N,05121.41636729,E,2,37,0.4,1256.744,M,-14.898,M,4.0,0123*5A
$GPGGA,050603.00,3542.76514465,N,05121.41636689,E,2,37,0.4,1256.740,M,-14.898,M,5.0,0123*56
$GPGGA,050604.00,3542.76514447,N,05121.41636673,E,2,37,0.4,1256.739,M,-14.898,M,5.0,0123*5A
$GPGGA,050605.00,3542.76514436,N,05121.41636654,E,2,37,0.4,1256.738,M,-14.898,M,5.0,0123*59
$GPGGA,050606.00,3542.76514439,N,05121.41636683,E,2,37,0.4,1256.742,M,-14.898,M,4.0,0123*53
$GPGGA,050607.00,3542.76514424,N,05121.41636719,E,2,37,0.4,1256.743,M,-14.898,M,5.0,0123*5C
$GPGGA,050608.00,3542.76514455,N,05121.41636744,E,2,37,0.4,1256.745,M,-14.898,M,5.0,0123*5B
$GPGGA,050609.00,3542.76514408,N,05121.41636696,E,2,37,0.4,1256.745,M,-14.898,M,5.0,0123*5C
$GPGGA,050610.00,3542.76514396,N,05121.41636707,E,2,37,0.4,1256.743,M,-14.898,M,4.0,0123*5A
$GPGGA,050611.00,3542.76514414,N,05121.41636739,E,2,37,0.4,1256.747,M,-14.898,M,5.0,0123*5E
$GPGGA,050612.00,3542.76514416,N,05121.41636767,E,2,37,0.4,1256.748,M,-14.898,M,5.0,0123*5B
$GPGGA,050613.00,3542.76514442,N,05121.41636801,E,2,37,0.4,1256.749,M,-14.898,M,5.0,0123*55
$GPGGA,050614.00,3542.76514426,N,05121.41636747,E,2,37,0.4,1256.746,M,-14.898,M,4.0,0123*53
$GPGGA,050615.00,3542.76514338,N,05121.41636824,E,2,37,0.4,1256.745,M,-14.898,M,5.0,0123*52
$GPGGA,050616.00,3542.76514300,N,05121.41636751,E,2,37,0.4,1256.743,M,-14.898,M,5.0,0123*51
$GPGGA,050617.00,3542.76514264,N,05121.41636731,E,2,37,0.4,1256.740,M,-14.898,M,5.0,0123*56
$GPGGA,050618.00,3542.76514219,N,05121.41636725,E,2,37,0.4,1256.736,M,-14.898,M,4.0,0123*56
$GPGGA,050619.00,3542.76514226,N,05121.41636754,E,2,37,0.4,1256.735,M,-14.898,M,5.0,0123*5F
$GPGGA,050620.00,3542.76514210,N,05121.41636722,E,2,37,0.4,1256.732,M,-14.898,M,5.0,0123*56
$GPGGA,050621.00,3542.76514190,N,05121.41636696,E,2,37,0.4,1256.731,M,-14.898,M,5.0,0123*51
$GPGGA,050622.00,3542.76514189,N,05121.41636679,E,2,37,0.4,1256.729,M,-14.898,M,4.0,0123*53
$GPGGA,050623.00,3542.76514129,N,05121.41636703,E,2,37,0.4,1256.727,M,-14.898,M,5.0,0123*5B
$GPGGA,050624.00,3542.76514090,N,05121.41636660,E,2,37,0.4,1256.724,M,-14.898,M,5.0,0123*58
$GPGGA,050625.00,3542.76514075,N,05121.41636652,E,2,37,0.4,1256.722,M,-14.898,M,5.0,0123*55
$GPGGA,050626.00,3542.76514107,N,05121.41636651,E,2,37,0.4,1256.721,M,-14.898,M,4.0,0123*53
$GPGGA,050627.00,3542.76514048,N,05121.41636575,E,2,37,0.4,1256.720,M,-14.898,M,5.0,0123*5D
$GPGGA,050628.00,3542.76514057,N,05121.41636475,E,2,37,0.4,1256.717,M,-14.898,M,5.0,0123*59
$GPGGA,050629.00,3542.76514082,N,05121.41636376,E,2,37,0.4,1256.713,M,-14.898,M,5.0,0123*50
$GPGGA,050630.00,3542.76514071,N,05121.41636303,E,2,37,0.4,1256.710,M,-14.898,M,4.0,0123*54
$GPGGA,050631.00,3542.76514138,N,05121.41636218,E,2,37,0.4,1256.709,M,-14.898,M,5.0,0123*5B
$GPGGA,050632.00,3542.76514173,N,05121.41636117,E,2,37,0.4,1256.705,M,-14.898,M,5.0,0123*57
$GPGGA,050633.00,3542.76514246,N,05121.41636065,E,2,37,0.4,1256.702,M,-14.898,M,5.0,0123*50
$GPGGA,050634.00,3542.76514334,N,05121.41635966,E,2,37,0.4,1256.702,M,-14.898,M,4.0,0123*5B
$GPGGA,050635.00,3542.76514399,N,05121.41635893,E,2,37,0.4,1256.700,M,-14.898,M,5.0,0123*55
$GPGGA,050636.00,3542.76514444,N,05121.41635822,E,2,37,0.4,1256.697,M,-14.898,M,5.0,0123*54
$GPGGA,050637.00,3542.76514565,N,05121.41635713,E,2,37,0.4,1256.695,M,-14.898,M,5.0,0123*58
$GPGGA,050638.00,3542.76514634,N,05121.41635771,E,2,37,0.4,1256.693,M,-14.898,M,4.0,0123*53
$GPGGA,050639.00,3542.76514732,N,05121.41635746,E,2,37,0.4,1256.692,M,-14.898,M,5.0,0123*51
$GPGGA,050640.00,3542.76514828,N,05121.41635722,E,2,37,0.4,1256.692,M,-14.898,M,5.0,0123*59
$GPGGA,050641.00,3542.76514856,N,05121.41635746,E,2,37,0.4,1256.690,M,-14.898,M,5.0,0123*51
$GPGGA,050642.00,3542.76514953,N,05121.41635764,E,2,37,0.4,1256.691,M,-14.898,M,4.0,0123*56
$GPGGA,050643.00,3542.76514999,N,05121.41635791,E,2,37,0.4,1256.690,M,-14.898,M,5.0,0123*5B
$GPGGA,050644.00,3542.76515097,N,05121.41635766,E,2,37,0.4,1256.691,M,-14.898,M,5.0,0123*53
$GPGGA,050645.00,3542.76515136,N,05121.41635776,E,2,37,0.4,1256.690,M,-14.898,M,5.0,0123*58
$GPGGA,050646.00,3542.76515271,N,05121.41635777,E,2,37,0.4,1256.694,M,-14.898,M,4.0,0123*5F
$GPGGA,050647.00,3542.76515291,N,05121.41635793,E,2,37,0.4,1256.696,M,-14.898,M,5.0,0123*59
$GPGGA,050648.00,3542.76515341,N,05121.41635838,E,2,37,0.4,1256.699,M,-14.898,M,5.0,0123*5B
$GPGGA,050649.00,3542.76515372,N,05121.41635766,E,2,37,0.4,1256.698,M,-14.898,M,5.0,0123*5F
$GPGGA,050650.00,3542.76515374,N,05121.41635744,E,2,37,0.4,1256.701,M,-14.898,M,4.0,0123*51
$GPGGA,050651.00,3542.76515326,N,05121.41635741,E,2,37,0.4,1256.706,M,-14.898,M,5.0,0123*54
$GPGGA,050652.00,3542.76515260,N,05121.41635791,E,2,37,0.4,1256.710,M,-14.898,M,5.0,0123*5E
$GPGGA,050653.00,3542.76515276,N,05121.41635847,E,2,37,0.4,1256.713,M,-14.898,M,5.0,0123*5F
$GPGGA,050654.00,3542.76515246,N,05121.41635863,E,2,37,0.4,1256.715,M,-14.898,M,4.0,0123*5A
$GPGGA,050655.00,3542.76515254,N,05121.41635914,E,2,37,0.4,1256.718,M,-14.898,M,5.0,0123*55
$GPGGA,050656.00,3542.76515306,N,05121.41635937,E,2,37,0.4,1256.722,M,-14.898,M,5.0,0123*58
$GPGGA,050657.00,3542.76515403,N,05121.41635959,E,2,37,0.4,1256.728,M,-14.898,M,5.0,0123*59
$GPGGA,050658.00,3542.76515425,N,05121.41635904,E,2,37,0.4,1256.730,M,-14.898,M,4.0,0123*52
$GPGGA,050659.00,3542.76515420,N,05121.41635959,E,2,37,0.4,1256.736,M,-14.898,M,5.0,0123*59
