$GPGGA,050800.00,3542.76516454,N,05121.41635827,E,2,37,0.4,1256.875,M,-14.898,M,5.0,0123*5B
$GPGGA,050801.00,3542.76516492,N,05121.41635948,E,2,37,0.4,1256.880,M,-14.898,M,5.0,0123*52
$GPGGA,050802.00,3542.76516490,N,05121.41636038,E,2,37,0.4,1256.884,M,-14.898,M,4.0,0123*5B
$GPGGA,050803.00,3542.76516555,N,05121.41636125,E,2,37,0.4,1256.887,M,-14.898,M,5.0,0123*5D
$GPGGA,050804.00,3542.76516576,N,05121.41636278,E,2,37,0.4,1256.894,M,-14.898,M,5.0,0123*52
$GPGGA,050805.00,3542.76516603,N,05121.41636405,E,2,37,0.4,1256.898,M,-14.898,M,5.0,0123*52
$GPGGA,050806.00,3542.76516641,N,05121.41636436,E,2,37,0.4,1256.904,M,-14.898,M,4.0,0123*52
$GPGGA,050807.00,3542.76516719,N,05121.41636524,E,2,37,0.4,1256.910,M,-14.898,M,5.0,0123*59
$GPGGA,050808.00,3542.76516776,N,05121.41636622,E,2,37,0.4,1256.915,M,-14.898,M,5.0,0123*5F
$GPGGA,050809.00,3542.76516827,N,05121.41636720,E,2,37,0.4,1256.919,M,-14.898,M,5.0,0123*5A
$GPGGA,050810.00,3542.76516800,N,05121.41636814,E,2,37,0.4,1256.924,M,-14.898,M,4.0,0123*50
$GPGGA,050811.00,3542.76516869,N,05121.41636905,E,2,37,0.4,1256.926,M,-14.898,M,5.0,0123*5C
$GPGGA,050812.00,3542.76516898,N,05121.41637066,E,2,37,0.4,1256.929,M,-14.898,M,5.0,0123*53
$GPGGA,050813.00,3542.76516912,N,05121.41637164,E,2,37,0.4,1256.932,M,-14.898,M,5.0,0123*58
$GPGGA,050814.00,3542.76516952,N,05121.41637164,E,2,37,0.4,1256.932,M,-14.898,M,4.0,0123*5A
$GPGGA,050815.00,3542.76516993,N,05121.41637197,E,2,37,0.4,1256.933,M,-14.898,M,5.0,0123*5A
$GPGGA,050816.00,3542.76517096,N,05121.41637195,E,2,37,0.4,1256.932,M,-14.898,M,5.0,0123*57
$GPGGA,050817.00,3542.76517220,N,05121.41637091,E,2,37,0.4,1256.934,M,-14.898,M,5.0,0123*5A
$GPGGA,050818.00,3542.76517316,N,05121.41637082,E,2,37,0.4,1256.937,M,-14.898,M,4.0,0123*51
$GPGGA,050819.00,3542.76517466,N,05121.41637106,E,2,37,0.4,1256.943,M,-14.898,M,5.0,0123*5F
$GPGGA,050820.00,3542.76517521,N,05121.41637097,E,2,37,0.4,1256.946,M,-14.898,M,5.0,0123*5B
$GPGGA,050821.00,3542.76517628,N,05121.41637038,E,2,37,0.4,1256.949,M,-14.898,M,5.0,0123*5A
$GPGGA,050822.00,3542.76517678,N,05121.41636874,E,2,37,0.4,1256.945,M,-14.898,M,4.0,0123*50
$GPGGA,050823.00,3542.76517827,N,05121.41636761,E,2,37,0.4,1256.943,M,-14.898,M,5.0,0123*59
$GPGGA,050824.00,3542.76517949,N,05121.41636581,E,2,37,0.4,1256.937,M,-14.898,M,5.0,0123*58
$GPGGA,050825.00,3542.76518002,N,05121.41636413,E,2,37,0.4,1256.928,M,-14.898,M,5.0,0123*54
$GPGGA,050826.00,3542.76518024,N,05121.41636213,E,2,37,0.4,1256.921,M,-14.898,M,4.0,0123*5D
$GPGGA,050827.00,3542.76518050,N,05121.41636013,E,2,37,0.4,1256.915,M,-14.898,M,5.0,0123*5B
$GPGGA,050828.00,3542.76518084,N,05121.41635793,E,2,37,0.4,1256.910,M,-14.898,M,5.0,0123*54
$GPGGA,050829.00,3542.76518101,N,05121.41635637,E,2,37,0.4,1256.908,M,-14.898,M,5.0,0123*5F
$GPGGA,050830.00,3542.76518081,N,05121.41635505,E,2,37,0.4,1256.907,M,-14.898,M,4.0,0123*52
$GPGGA,050831.00,3542.76518140,N,05121.41635316,E,2,37,0.4,1256.905,M,-14.898,M,5.0,0123*58
$GPGGA,050832.00,3542.76518149,N,05121.41635284,E,2,37,0.4,1256.906,M,-14.898,M,5.0,0123*5B
$GPGGA,050833.00,3542.76518115,N,05121.41635188,E,2,37,0.4,1256.909,M,-14.898,M,5.0,0123*53
$GPGGA,050834.00,3542.76518173,N,05121.41635136,E,2,37,0.4,1256.913,M,-14.898,M,4.0,0123*5B
$GPGGA,050835.00,3542.76518227,N,05121.41635111,E,2,37,0.4,1256.923,M,-14.898,M,5.0,0123*5F
$GPGGA,050836.00,3542.76518296,N,05121.41635104,E,2,37,0.4,1256.929,M,-14.898,M,5.0,0123*58
$GPGGA,050837.00,3542.76518368,N,05121.41635093,E,2,37,0.4,1256.935,M,-14.898,M,5.0,0123*5B
$GPGGA,050838.00,3542.76518459,N,05121.41635053,E,2,37,0.4,1256.937,M,-14.898,M,4.0,0123*5E
$GPGGA,050839.00,3542.76518466,N,05121.41634969,E,2,37,0.4,1256.938,M,-14.898,M,5.0,0123*5C
$GPGGA,050840.00,3542.76518530,N,05121.41634907,E,2,37,0.4,1256.940,M,-14.898,M,5.0,0123*57
$GPGGA,050841.00,3542.76518639,N,05121.41634765,E,2,37,0.4,1256.940,M,-14.898,M,5.0,0123*56
$GPGGA,050842.00,3542.76518686,N,05121.41634666,E,2,37,0.4,1256.940,M,-14.898,M,4.0,0123*52
$GPGGA,050843.00,3542.76518763,N,05121.41634680,E,2,37,0.4,1256.945,M,-14.898,M,5.0,0123*55
$GPGGA,050844.00,3542.76518880,N,05121.41634617,E,2,37,0.4,1256.948,M,-14.898,M,5.0,0123*53
$GPGGA,050845.00,3542.76518961,N,05121.41634623,E,2,37,0.4,1256.951,M,-14.898,M,5.0,0123*53
$GPGGA,050846.00,3542.76519010,N,05121.41634656,E,2,37,0.4,1256.957,M,-14.898,M,4.0,0123*5B
$GPGGA,050847.00,3542.76519045,N,05121.41634647,E,2,37,0.4,1256.960,M,-14.898,M,5.0,0123*5F
$GPGGA,050848.00,3542.76519130,N,05121.41634563,E,2,38,0.4,1256.962,M,-14.898,M,5.0,0123*5B
$GPGGA,050849.00,3542.76519216,N,05121.41634481,E,2,38,0.4,1256.962,M,-14.898,M,5.0,0123*50
$GPGGA,050850.00,3542.76519302,N,05121.41634409,E,2,38,0.4,1256.968,M,-14.898,M,4.0,0123*57
$GPGGA,050851.00,3542.76519389,N,05121.41634414,E,2,38,0.4,1256.972,M,-14.898,M,5.0,0123*53
$GPGGA,050852.00,3542.76519433,N,05121.41634352,E,2,38,0.4,1256.976,M,-14.898,M,5.0,0123*57
$GPGGA,050853.00,3542.76519498,N,05121.41634344,E,2,38,0.4,1256.981,M,-14.898,M,5.0,0123*58
$GPGGA,050854.00,3542.76519545,N,05121.41634339,E,2,38,0.4,1256.986,M,-14.898,M,4.0,0123*52
$GPGGA,050855.00,3542.76519567,N,05121.41634309,E,2,38,0.4,1256.990,M,-14.898,M,5.0,0123*56
$GPGGA,050856.00,3542.76519610,N,05121.41634286,E,2,38,0.4,1256.992,M,-14.898,M,5.0,0123*52
$GPGGA,050857.00,3542.76519718,N,05121.41634257,E,2,38,0.4,1256.993,M,-14.898,M,5.0,0123*57
$GPGGA,050858.00,3542.76519769,N,05121.41634232,E,2,38,0.4,1256.995,M,-14.898,M,4.0,0123*5A
$GPGGA,050859.00,3542.76519818,N,05121.41634311,E,2,38,0.4,1257.000,M,-14.898,M,5.0,0123*57
