$GPGGA,050900.00,3542.76519837,N,05121.41634341,E,2,38,0.4,1257.004,M,-14.898,M,5.0,0123*56
$GPGGA,050901.00,3542.76519849,N,05121.41634402,E,2,38,0.4,1257.009,M,-14.898,M,5.0,0123*53
$GPGGA,050902.00,3542.76519909,N,05121.41634474,E,2,38,0.4,1257.012,M,-14.898,M,4.0,0123*5F
$GPGGA,050903.00,3542.76519928,N,05121.41634644,E,2,38,0.4,1257.020,M,-14.898,M,5.0,0123*5C
$GPGGA,050904.00,3542.76520000,N,05121.41634842,E,2,38,0.4,1257.032,M,-14.898,M,5.0,0123*59
$GPGGA,050905.00,3542.76520025,N,05121.41635031,E,2,38,0.4,1257.041,M,-14.898,M,5.0,0123*56
$GPGGA,050906.00,3542.76520019,N,05121.41635258,E,2,38,0.4,1257.051,M,-14.898,M,4.0,0123*57
$GPGGA,050907.00,3542.76520064,N,05121.41635340,E,2,38,0.4,1257.053,M,-14.898,M,5.0,0123*57
$GPGGA,050908.00,3542.76520147,N,05121.41635418,E,2,38,0.4,1257.056,M,-14.898,M,5.0,0123*57
$GPGGA,050909.00,3542.76520158,N,05121.41635610,E,2,38,0.4,1257.063,M,-14.898,M,5.0,0123*54
$GPGGA,050910.00,3542.76520233,N,05121.41635646,E,2,38,0.4,1257.068,M,-14.898,M,4.0,0123*5B
$GPGGA,050911.00,3542.76520290,N,05121.41635713,E,2,38,0.4,1257.070,M,-14.898,M,5.0,0123*5A
$GPGGA,050912.00,3542.76520345,N,05121.41635837,E,2,38,0.4,1257.076,M,-14.898,M,5.0,0123*5F
$GPGGA,050913.00,3542.76520339,N,05121.41635896,E,2,38,0.4,1257.077,M,-14.898,M,5.0,0123*5F
$GPGGA,050914.00,3542.76520333,N,05121.41636082,E,2,38,0.4,1257.084,M,-14.898,M,4.0,0123*51
$GPGGA,050915.00,3542.76520378,N,05121.41636148,E,2,38,0.4,1257.088,M,-14.898,M,5.0,0123*55
$GPGGA,050916.00,3542.76520476,N,05121.41636142,E,2,38,0.4,1257.087,M,-14.898,M,5.0,0123*5A
$GPGGA,050917.00,3542.76520427,N,05121.41636180,E,2,38,0.4,1257.087,M,-14.898,M,5.0,0123*51
$GPGGA,050918.00,3542.76520404,N,05121.41636147,E,2,38,0.4,1257.085,M,-14.898,M,4.0,0123*57
$GPGGA,050919.00,3542.76520442,N,05121.41636212,E,2,38,0.4,1257.088,M,-14.898,M,5.0,0123*5B
$GPGGA,050920.00,3542.76520469,N,05121.41636232,E,2,38,0.4,1257.091,M,-14.898,M,5.0,0123*52
$GPGGA,050921.00,3542.76520400,N,05121.41636167,E,2,38,0.4,1257.090,M,-14.898,M,5.0,0123*5E
$GPGGA,050922.00,3542.76520458,N,05121.41636086,E,2,38,0.4,1257.090,M,-14.898,M,4.0,0123*5F
$GPGGA,050923.00,3542.76520496,N,05121.41636003,E,2,38,0.4,1257.087,M,-14.898,M,5.0,0123*56
$GPGGA,050924.00,3542.76520542,N,05121.41635900,E,2,38,0.4,1257.086,M,-14.898,M,5.0,0123*51
$GPGGA,050925.00,3542.76520503,N,05121.41635797,E,2,38,0.4,1257.084,M,-14.898,M,5.0,0123*57
$GPGGA,050926.00,3542.76520488,N,05121.41635693,E,2,38,0.4,1257.083,M,-14.898,M,4.0,0123*55
$GPGGA,050927.00,3542.76520515,N,05121.41635547,E,2,38,0.4,1257.079,M,-14.898,M,5.0,0123*5F
$GPGGA,050928.00,3542.76520525,N,05121.41635452,E,2,38,0.4,1257.079,M,-14.898,M,5.0,0123*56
$GPGGA,050929.00,3542.76520495,N,05121.41635369,E,2,38,0.4,1257.080,M,-14.898,M,5.0,0123*54
$GPGGA,050930.00,3542.76520523,N,05121.41635289,E,2,38,0.4,1257.081,M,-14.898,M,4.0,0123*5F
$GPGGA,050931.00,3542.76520521,N,05121.41635177,E,2,38,0.4,1257.084,M,-14.898,M,5.0,0123*5A
$GPGGA,050932.00,3542.76520543,N,05121.41635087,E,2,38,0.4,1257.085,M,-14.898,M,5.0,0123*52
$GPGGA,050933.00,3542.76520549,N,05121.41635002,E,2,38,0.4,1257.084,M,-14.898,M,5.0,0123*55
$GPGGA,050934.00,3542.76520535,N,05121.41634998,E,2,38,0.4,1257.089,M,-14.898,M,4.0,0123*5E
$GPGGA,050935.00,3542.76520514,N,05121.41634888,E,2,38,0.4,1257.088,M,-14.898,M,5.0,0123*5C
$GPGGA,050936.00,3542.76520482,N,05121.41634825,E,2,38,0.4,1257.091,M,-14.898,M,5.0,0123*5E
$GPGGA,050937.00,3542.76520426,N,05121.41634685,E,2,38,0.4,1257.089,M,-14.898,M,5.0,0123*5C
$GPGGA,050938.00,3542.76520362,N,05121.41634523,E,2,38,0.4,1257.084,M,-14.898,M,6.0,0123*55
$GPGGA,050939.00,3542.76520344,N,05121.41634414,E,2,38,0.4,1257.085,M,-14.898,M,5.0,0123*57
$GPGGA,050940.00,3542.76520313,N,05121.41634293,E,2,38,0.4,1257.086,M,-14.898,M,5.0,0123*51
$GPGGA,050941.00,3542.76520303,N,05121.41634227,E,2,38,0.4,1257.088,M,-14.898,M,4.0,0123*51
$GPGGA,050942.00,3542.76520326,N,05121.41634126,E,2,38,0.4,1257.091,M,-14.898,M,5.0,0123*5E
$GPGGA,050943.00,3542.76520310,N,05121.41634182,E,2,38,0.4,1257.096,M,-14.898,M,5.0,0123*53
$GPGGA,050944.00,3542.76520261,N,05121.41634218,E,2,38,0.4,1257.103,M,-14.898,M,5.0,0123*5E
$GPGGA,050945.00,3542.76520223,N,05121.41634231,E,2,38,0.4,1257.107,M,-14.898,M,4.0,0123*57
$GPGGA,050946.00,3542.76520176,N,05121.41634246,E,2,38,0.4,1257.113,M,-14.898,M,5.0,0123*53
$GPGGA,050947.00,3542.76520086,N,05121.41634318,E,2,38,0.4,1257.116,M,-14.898,M,5.0,0123*53
$GPGGA,050948.00,3542.76520023,N,05121.41634403,E,2,38,0.4,1257.121,M,-14.898,M,5.0,0123*5A
$GPGGA,050949.00,3542.76519976,N,05121.41634398,E,2,38,0.4,1257.123,M,-14.898,M,4.0,0123*5E
$GPGGA,050950.00,3542.76520005,N,05121.41634420,E,2,38,0.4,1257.127,M,-14.898,M,5.0,0123*50
$GPGGA,050951.00,3542.76519990,N,05121.41634540,E,2,38,0.4,1257.134,M,-14.898,M,5.0,0123*5B
$GPGGA,050952.00,3542.76519932,N,05121.41634602,E,2,38,0.4,1257.139,M,-14.898,M,5.0,0123*58
$GPGGA,050953.00,3542.76519881,N,05121.41634652,E,2,38,0.4,1257.141,M,-14.898,M,4.0,0123*5B
$GPGGA,050954.00,3542.76519817,N,05121.41634694,E,2,38,0.4,1257.142,M,-14.898,M,5.0,0123*5B
$GPGGA,050955.00,3542.76519776,N,05121.41634814,E,2,38,0.4,1257.147,M,-14.898,M,5.0,0123*51
$GPGGA,050956.00,3542.76519774,N,05121.41634862,E,2,38,0.4,1257.151,M,-14.898,M,5.0,0123*56
$GPGGA,050957.00,3542.76519756,N,05121.41634944,E,2,38,0.4,1257.156,M,-14.898,M,4.0,0123*54
$GPGGA,050958.00,3542.76519732,N,05121.41634932,E,2,38,0.4,1257.161,M,-14.898,M,5.0,0123*5D
$GPGGA,050959.00,3542.76519709,N,05121.41635000,E,2,38,0.4,1257.164,M,-14.898,M,5.0,0123*58
