$GPGGA,045815.00,3542.76520565,N,05121.41654450,E,2,37,0.5,1255.948,M,-14.898,M,5.0,0123*5B
$GPGGA,045816.00,3542.76520626,N,05121.41654302,E,2,37,0.5,1255.952,M,-14.898,M,5.0,0123*57
$GPGGA,045817.00,3542.76520714,N,05121.41654230,E,2,37,0.5,1255.957,M,-14.898,M,5.0,0123*53
$GPGGA,045818.00,3542.76520777,N,05121.41654142,E,2,37,0.5,1255.961,M,-14.898,M,4.0,0123*5B
$GPGGA,045819.00,3542.76520882,N,05121.41654014,E,2,37,0.5,1255.963,M,-14.898,M,5.0,0123*5E
$GPGGA,045820.00,3542.76520918,N,05121.41653847,E,2,37,0.5,1255.965,M,-14.898,M,5.0,0123*59
$GPGGA,045821.00,3542.76520996,N,05121.41653764,E,2,37,0.5,1255.968,M,-14.898,M,5.0,0123*5D
$GPGGA,045822.00,3542.76521136,N,05121.41653673,E,2,37,0.5,1255.970,M,-14.898,M,4.0,0123*52
$GPGGA,045823.00,3542.76521184,N,05121.41653547,E,2,37,0.5,1255.973,M,-14.898,M,5.0,0123*5C
$GPGGA,045824.00,3542.76521257,N,05121.41653480,E,2,37,0.5,1255.977,M,-14.898,M,5.0,0123*58
$GPGGA,045825.00,3542.76521246,N,05121.41653374,E,2,37,0.5,1255.980,M,-14.898,M,5.0,0123*5D
$GPGGA,045826.00,3542.76521333,N,05121.41653287,E,2,37,0.5,1255.983,M,-14.898,M,4.0,0123*52
$GPGGA,045827.00,3542.76521371,N,05121.41653176,E,2,37,0.5,1255.985,M,-14.898,M,5.0,0123*5F
$GPGGA,045828.00,3542.76521450,N,05121.41653098,E,2,37,0.5,1255.990,M,-14.898,M,5.0,0123*51
$GPGGA,045829.00,3542.76521506,N,05121.41653005,E,2,37,0.5,1255.992,M,-14.898,M,5.0,0123*54
$GPGGA,045830.00,3542.76521552,N,05121.41652920,E,2,37,0.5,1255.992,M,-14.898,M,4.0,0123*53
$GPGGA,045831.00,3542.76521625,N,05121.41652783,E,2,37,0.5,1255.995,M,-14.898,M,5.0,0123*50
$GPGGA,045832.00,3542.76521669,N,05121.41652699,E,2,37,0.5,1255.996,M,-14.898,M,5.0,0123*52
$GPGGA,045833.00,3542.76521664,N,05121.41652678,E,2,37,0.5,1255.997,M,-14.898,M,5.0,0123*50
$GPGGA,045834.00,3542.76521708,N,05121.41652553,E,2,37,0.5,1255.997,M,-14.898,M,4.0,0123*57
$GPGGA,045835.00,3542.76521748,N,05121.41652453,E,2,37,0.5,1255.998,M,-14.898,M,5.0,0123*5D
$GPGGA,045836.00,3542.76521811,N,05121.41652334,E,2,37,0.5,1256.000,M,-14.898,M,5.0,0123*50
$GPGGA,045837.00,3542.76521881,N,05121.41652239,E,2,37,0.5,1256.003,M,-14.898,M,5.0,0123*57
$GPGGA,045838.00,3542.76521865,N,05121.41652148,E,2,37,0.5,1256.004,M,-14.898,M,4.0,0123*51
$GPGGA,045839.00,3542.76521890,N,05121.41652006,E,2,37,0.5,1256.006,M,-14.898,M,5.0,0123*52
$GPGGA,045840.00,3542.76521882,N,05121.41651878,E,2,37,0.5,1256.007,M,-14.898,M,5.0,0123*5C
$GPGGA,045841.00,3542.76521891,N,05121.41651837,E,2,37,0.5,1256.008,M,-14.898,M,5.0,0123*5B
$GPGGA,045842.00,3542.76521930,N,05121.41651700,E,2,37,0.5,1256.010,M,-14.898,M,4.0,0123*51
$GPGGA,045843.00,3542.76522005,N,05121.41651586,E,2,37,0.5,1256.014,M,-14.898,M,5.0,0123*55
$GPGGA,045844.00,3542.76521982,N,05121.41651503,E,2,37,0.5,1256.016,M,-14.898,M,5.0,0123*58
$GPGGA,045845.00,3542.76521935,N,05121.41651428,E,2,37,0.5,1256.016,M,-14.898,M,5.0,0123*5D
$GPGGA,045846.00,3542.76521967,N,05121.41651396,E,2,37,0.5,1256.017,M,-14.898,M,4.0,0123*5B
$GPGGA,045847.00,3542.76522042,N,05121.41651282,E,2,37,0.5,1256.020,M,-14.898,M,5.0,0123*56
$GPGGA,045848.00,3542.76522061,N,05121.41651226,E,2,37,0.5,1256.023,M,-14.898,M,5.0,0123*55
$GPGGA,045849.00,3542.76522088,N,05121.41651121,E,2,37,0.5,1256.025,M,-14.898,M,5.0,0123*51
$GPGGA,045850.00,3542.76522152,N,05121.41651001,E,2,37,0.5,1256.028,M,-14.898,M,4.0,0123*50
$GPGGA,045851.00,3542.76522116,N,05121.41650896,E,2,37,0.5,1256.026,M,-14.898,M,5.0,0123*59
$GPGGA,045852.00,3542.76522138,N,05121.41650776,E,2,37,0.5,1256.028,M,-14.898,M,5.0,0123*59
$GPGGA,045853.00,3542.76522122,N,05121.41650665,E,2,37,0.5,1256.028,M,-14.898,M,5.0,0123*50
$GPGGA,045854.00,3542.76522164,N,05121.41650535,E,2,37,0.5,1256.031,M,-14.898,M,4.0,0123*5A
$GPGGA,045855.00,3542.76522132,N,05121.41650436,E,2,37,0.5,1256.032,M,-14.898,M,5.0,0123*58
$GPGGA,045856.00,3542.76522142,N,05121.41650388,E,2,37,0.5,1256.035,M,-14.898,M,5.0,0123*59
$GPGGA,045857.00,3542.76522182,N,05121.41650314,E,2,37,0.5,1256.036,M,-14.898,M,5.0,0123*52
$GPGGA,045858.00,3542.76522167,N,05121.41650203,E,2,37,0.5,1256.035,M,-14.898,M,4.0,0123*53
$GPGGA,045859.00,3542.76522205,N,05121.41650149,E,2,37,0.5,1256.035,M,-14.898,M,5.0,0123*59
