$GPGGA,045900.00,3542.76522237,N,05121.41650068,E,2,37,0.5,1256.036,M,-14.898,M,5.0,0123*54
$GPGGA,045901.00,3542.76522265,N,05121.41649937,E,2,37,0.5,1256.036,M,-14.898,M,5.0,0123*59
$GPGGA,045902.00,3542.76522305,N,05121.41649842,E,2,37,0.5,1256.039,M,-14.898,M,4.0,0123*50
$GPGGA,045903.00,3542.76522367,N,05121.41649725,E,2,37,0.5,1256.039,M,-14.898,M,5.0,0123*5A
$GPGGA,045904.00,3542.76522359,N,05121.41649618,E,2,37,0.5,1256.039,M,-14.898,M,5.0,0123*5F
$GPGGA,045905.00,3542.76522356,N,05121.41649552,E,2,37,0.5,1256.040,M,-14.898,M,5.0,0123*52
$GPGGA,045906.00,3542.76522407,N,05121.41649419,E,2,37,0.5,1256.039,M,-14.898,M,4.0,0123*53
$GPGGA,045907.00,3542.76522414,N,05121.41649341,E,2,37,0.5,1256.040,M,-14.898,M,5.0,0123*55
$GPGGA,045908.00,3542.76522469,N,05121.41649320,E,2,37,0.5,1256.043,M,-14.898,M,5.0,0123*54
$GPGGA,045909.00,3542.76522461,N,05121.41649274,E,2,37,0.5,1256.043,M,-14.898,M,5.0,0123*5D
$GPGGA,045910.00,3542.76522556,N,05121.41649198,E,2,37,0.5,1256.043,M,-14.898,M,4.0,0123*50
$GPGGA,045911.00,3542.76522596,N,05121.41649120,E,2,37,0.5,1256.042,M,-14.898,M,5.0,0123*5E
$GPGGA,045912.00,3542.76522658,N,05121.41649037,E,2,37,0.5,1256.043,M,-14.898,M,5.0,0123*5A
$GPGGA,045913.00,3542.76522718,N,05121.41649045,E,2,37,0.5,1256.043,M,-14.898,M,5.0,0123*5B
$GPGGA,045914.00,3542.76522772,N,05121.41648935,E,2,37,0.5,1256.042,M,-14.898,M,4.0,0123*5F
$GPGGA,045915.00,3542.76522822,N,05121.41648905,E,2,37,0.5,1256.040,M,-14.898,M,5.0,0123*54
$GPGGA,045916.00,3542.76522842,N,05121.41648825,E,2,37,0.5,1256.039,M,-14.898,M,5.0,0123*5C
$GPGGA,045917.00,3542.76522861,N,05121.41648752,E,2,37,0.5,1256.038,M,-14.898,M,5.0,0123*52
$GPGGA,045918.00,3542.76522881,N,05121.41648692,E,2,37,0.5,1256.037,M,-14.898,M,4.0,0123*50
$GPGGA,045919.00,3542.76522861,N,05121.41648625,E,2,37,0.5,1256.038,M,-14.898,M,5.0,0123*5D
$GPGGA,045920.00,3542.76522843,N,05121.41648524,E,2,37,0.5,1256.036,M,-14.898,M,5.0,0123*5B
$GPGGA,045921.00,3542.76522812,N,05121.41648455,E,2,37,0.5,1256.034,M,-14.898,M,5.0,0123*5B
$GPGGA,045922.00,3542.76522808,N,05121.41648389,E,2,37,0.5,1256.031,M,-14.898,M,4.0,0123*51
$GPGGA,045923.00,3542.76522796,N,05121.41648284,E,2,37,0.5,1256.031,M,-14.898,M,5.0,0123*55
$GPGGA,045924.00,3542.76522763,N,05121.41648147,E,2,37,0.5,1256.029,M,-14.898,M,5.0,0123*5D
$GPGGA,045925.00,3542.76522720,N,05121.41648058,E,2,37,0.5,1256.028,M,-14.898,M,5.0,0123*55
$GPGGA,045926.00,3542.76522625,N,05121.41647951,E,2,37,0.5,1256.029,M,-14.898,M,4.0,0123*5D
$GPGGA,045927.00,3542.76522564,N,05121.41647910,E,2,37,0.5,1256.030,M,-14.898,M,5.0,0123*56
$GPGGA,045928.00,3542.76522505,N,05121.41647829,E,2,37,0.5,1256.029,M,-14.898,M,5.0,0123*5D
$GPGGA,045929.00,3542.76522438,N,05121.41647739,E,2,37,0.5,1256.029,M,-14.898,M,5.0,0123*5D
$GPGGA,045930.00,3542.76522433,N,05121.41647658,E,2,37,0.5,1256.030,M,-14.898,M,4.0,0123*51
$GPGGA,045931.00,3542.76522439,N,05121.41647605,E,2,37,0.5,1256.031,M,-14.898,M,5.0,0123*52
$GPGGA,045932.00,3542.76522370,N,05121.41647582,E,2,37,0.5,1256.032,M,-14.898,M,5.0,0123*54
$GPGGA,045933.00,3542.76522388,N,05121.41647590,E,2,37,0.5,1256.036,M,-14.898,M,5.0,0123*55
$GPGGA,045934.00,3542.76522411,N,05121.41647485,E,2,37,0.5,1256.037,M,-14.898,M,4.0,0123*50
$GPGGA,045935.00,3542.76522404,N,05121.41647388,E,2,37,0.5,1256.036,M,-14.898,M,5.0,0123*5F
$GPGGA,045936.00,3542.76522375,N,05121.41647336,E,2,37,0.5,1256.037,M,-14.898,M,5.0,0123*59
$GPGGA,045937.00,3542.76522316,N,05121.41647255,E,2,37,0.5,1256.036,M,-14.898,M,5.0,0123*58
$GPGGA,045938.00,3542.76522351,N,05121.41647203,E,2,37,0.5,1256.040,M,-14.898,M,4.0,0123*57
$GPGGA,045939.00,3542.76522303,N,05121.41647112,E,2,37,0.5,1256.043,M,-14.898,M,5.0,0123*50
$GPGGA,045940.00,3542.76522273,N,05121.41647008,E,2,37,0.5,1256.046,M,-14.898,M,5.0,0123*57
$GPGGA,045941.00,3542.76522229,N,05121.41646948,E,2,37,0.5,1256.049,M,-14.898,M,5.0,0123*5A
$GPGGA,045942.00,3542.76522189,N,05121.41646931,E,2,37,0.5,1256.051,M,-14.898,M,4.0,0123*56
$GPGGA,045943.00,3542.76522182,N,05121.41646902,E,2,37,0.5,1256.053,M,-14.898,M,5.0,0123*5F
$GPGGA,045944.00,3542.76522165,N,05121.41646827,E,2,37,0.5,1256.056,M,-14.898,M,5.0,0123*52
$GPGGA,045945.00,3542.76522081,N,05121.41646798,E,2,37,0.5,1256.057,M,-14.898,M,5.0,0123*52
$GPGGA,045946.00,3542.76522071,N,05121.41646831,E,2,37,0.5,1256.060,M,-14.898,M,4.0,0123*57
$GPGGA,045947.00,3542.76522023,N,05121.41646813,E,2,37,0.5,1256.062,M,-14.898,M,5.0,0123*52
$GPGGA,045948.00,3542.76521991,N,05121.41646810,E,2,37,0.5,1256.065,M,-14.898,M,5.0,0123*5A
$GPGGA,045949.00,3542.76521962,N,05121.41646810,E,2,37,0.5,1256.068,M,-14.898,M,5.0,0123*5A
$GPGGA,045950.00,3542.76521906,N,05121.41646745,E,2,37,0.5,1256.067,M,-14.898,M,4.0,0123*51
$GPGGA,045951.00,3542.76521832,N,05121.41646618,E,2,37,0.5,1256.065,M,-14.898,M,5.0,0123*5C
$GPGGA,045952.00,3542.76521750,N,05121.41646582,E,2,37,0.5,1256.065,M,-14.898,M,5.0,0123*54
$GPGGA,045953.00,3542.76521722,N,05121.41646512,E,2,37,0.5,1256.067,M,-14.898,M,5.0,0123*5B
$GPGGA,045954.00,3542.76521637,N,05121.41646427,E,2,37,0.5,1256.068,M,-14.898,M,4.0,0123*50
$GPGGA,045955.00,3542.76521595,N,05121.41646335,E,2,37,0.5,1256.067,M,-14.898,M,5.0,0123*50
$GPGGA,045956.00,3542.76521596,N,05121.41646298,E,2,37,0.5,1256.069,M,-14.898,M,5.0,0123*58
$GPGGA,045957.00,3542.76521502,N,05121.41646199,E,2,37,0.5,1256.067,M,-14.898,M,5.0,0123*58
$GPGGA,045958.00,3542.76521500,N,05121.41646163,E,2,37,0.5,1256.067,M,-14.898,M,4.0,0123*51
$GPGGA,045959.00,3542.76521457,N,05121.41646161,E,2,37,0.5,1256.066,M,-14.898,M,5.0,0123*51
