$GPGGA,050000.00,3542.76521425,N,05121.41646131,E,2,37,0.5,1256.067,M,-14.898,M,5.0,0123*51
$GPGGA,050001.00,3542.76521365,N,05121.41646066,E,2,37,0.5,1256.066,M,-14.898,M,5.0,0123*51
$GPGGA,050002.00,3542.76521398,N,05121.41646037,E,2,37,0.5,1256.067,M,-14.898,M,4.0,0123*54
$GPGGA,050003.00,3542.76521390,N,05121.41646014,E,2,37,0.5,1256.068,M,-14.898,M,5.0,0123*52
$GPGGA,050004.00,3542.76521386,N,05121.41646030,E,2,37,0.5,1256.069,M,-14.898,M,5.0,0123*55
$GPGGA,050005.00,3542.76521339,N,05121.41646058,E,2,37,0.5,1256.071,M,-14.898,M,5.0,0123*57
$GPGGA,050006.00,3542.76521339,N,05121.41646039,E,2,37,0.5,1256.070,M,-14.898,M,4.0,0123*53
$GPGGA,050007.00,3542.76521270,N,05121.41646044,E,2,37,0.5,1256.067,M,-14.898,M,5.0,0123*53
$GPGGA,050008.00,3542.76521335,N,05121.41646015,E,2,37,0.5,1256.070,M,-14.898,M,5.0,0123*5E
$GPGGA,050009.00,3542.76521382,N,05121.41646116,E,2,37,0.5,1256.074,M,-14.898,M,5.0,0123*55
$GPGGA,050010.00,3542.76521402,N,05121.41646114,E,2,37,0.5,1256.075,M,-14.898,M,4.0,0123*50
$GPGGA,050011.00,3542.76521408,N,05121.41646080,E,2,37,0.5,1256.077,M,-14.898,M,5.0,0123*54
$GPGGA,050012.00,3542.76521376,N,05121.41646121,E,2,37,0.5,1256.081,M,-14.898,M,5.0,0123*5A
$GPGGA,050013.00,3542.76521355,N,05121.41646192,E,2,37,0.5,1256.086,M,-14.898,M,5.0,0123*55
$GPGGA,050014.00,3542.76521394,N,05121.41646242,E,2,37,0.5,1256.091,M,-14.898,M,4.0,0123*56
$GPGGA,050015.00,3542.76521415,N,05121.41646348,E,2,37,0.5,1256.097,M,-14.898,M,5.0,0123*55
$GPGGA,050016.00,3542.76521403,N,05121.41646417,E,2,37,0.5,1256.102,M,-14.898,M,5.0,0123*51
$GPGGA,050017.00,3542.76521408,N,05121.41646507,E,2,37,0.5,1256.107,M,-14.898,M,5.0,0123*5E
$GPGGA,050018.00,3542.76521406,N,05121.41646590,E,2,37,0.5,1256.111,M,-14.898,M,4.0,0123*57
$GPGGA,050019.00,3542.76521459,N,05121.41646624,E,2,37,0.5,1256.117,M,-14.898,M,5.0,0123*57
$GPGGA,050020.00,3542.76521450,N,05121.41646700,E,2,37,0.5,1256.119,M,-14.898,M,5.0,0123*5D
$GPGGA,050021.00,3542.76521412,N,05121.41646745,E,2,37,0.5,1256.125,M,-14.898,M,5.0,0123*54
$GPGGA,050022.00,3542.76521377,N,05121.41646743,E,2,37,0.5,1256.127,M,-14.898,M,4.0,0123*56
$GPGGA,050023.00,3542.76521325,N,05121.41646847,E,2,37,0.5,1256.132,M,-14.898,M,5.0,0123*5E
$GPGGA,050024.00,3542.76521265,N,05121.41646898,E,2,37,0.5,1256.137,M,-14.898,M,5.0,0123*5B
$GPGGA,050025.00,3542.76521219,N,05121.41646925,E,2,37,0.5,1256.139,M,-14.898,M,5.0,0123*58
$GPGGA,050026.00,3542.76521156,N,05121.41646931,E,2,37,0.5,1256.140,M,-14.898,M,4.0,0123*59
$GPGGA,050027.00,3542.76521065,N,05121.41646918,E,2,37,0.5,1256.140,M,-14.898,M,5.0,0123*53
$GPGGA,050028.00,3542.76520995,N,05121.41646915,E,2,37,0.5,1256.139,M,-14.898,M,5.0,0123*58
$GPGGA,050029.00,3542.76520929,N,05121.41646940,E,2,37,0.5,1256.143,M,-14.898,M,5.0,0123*53
$GPGGA,050030.00,3542.76520855,N,05121.41646966,E,2,37,0.5,1256.147,M,-14.898,M,4.0,0123*50
$GPGGA,050031.00,3542.76520786,N,05121.41646960,E,2,37,0.5,1256.148,M,-14.898,M,5.0,0123*58
$GPGGA,050032.00,3542.76520762,N,05121.41646930,E,2,37,0.5,1256.149,M,-14.898,M,5.0,0123*55
$GPGGA,050033.00,3542.76520710,N,05121.41646927,E,2,37,0.5,1256.153,M,-14.898,M,5.0,0123*5C
$GPGGA,050034.00,3542.76520641,N,05121.41646915,E,2,37,0.5,1256.156,M,-14.898,M,4.0,0123*5B
$GPGGA,050035.00,3542.76520557,N,05121.41646986,E,2,37,0.5,1256.162,M,-14.898,M,5.0,0123*52
$GPGGA,050036.00,3542.76520432,N,05121.41647025,E,2,37,0.5,1256.166,M,-14.898,M,5.0,0123*56
$GPGGA,050037.00,3542.76520375,N,05121.41647026,E,2,37,0.5,1256.168,M,-14.898,M,5.0,0123*5E
$GPGGA,050038.00,3542.76520282,N,05121.41647154,E,2,37,0.5,1256.171,M,-14.898,M,4.0,0123*55
$GPGGA,050039.00,3542.76520256,N,05121.41647182,E,2,37,0.5,1256.176,M,-14.898,M,5.0,0123*50
$GPGGA,050040.00,3542.76520207,N,05121.41647203,E,2,37,0.5,1256.179,M,-14.898,M,5.0,0123*5F
$GPGGA,050041.00,3542.76520136,N,05121.41647226,E,2,37,0.5,1256.181,M,-14.898,M,5.0,0123*5F
$GPGGA,050042.00,3542.76520057,N,05121.41647304,E,2,37,0.5,1256.185,M,-14.898,M,4.0,0123*5E
$GPGGA,050043.00,3542.76519979,N,05121.41647356,E,2,37,0.5,1256.187,M,-14.898,M,5.0,0123*54
$GPGGA,050044.00,3542.76519898,N,05121.41647385,E,2,37,0.5,1256.190,M,-14.898,M,5.0,0123*55
$GPGGA,050045.00,3542.76519829,N,05121.41647398,E,2,37,0.5,1256.191,M,-14.898,M,5.0,0123*53
$GPGGA,050046.00,3542.76519689,N,05121.41647446,E,2,37,0.5,1256.193,M,-14.898,M,4.0,0123*53
$GPGGA,050047.00,3542.76519600,N,05121.41647475,E,2,37,0.5,1256.195,M,-14.898,M,5.0,0123*54
$GPGGA,050048.00,3542.76519506,N,05121.41647513,E,2,37,0.5,1256.198,M,-14.898,M,5.0,0123*52
$GPGGA,050049.00,3542.76519455,N,05121.41647562,E,2,37,0.5,1256.198,M,-14.898,M,5.0,0123*52
$GPGGA,050050.00,3542.76519405,N,05121.41647547,E,2,37,0.5,1256.197,M,-14.898,M,4.0,0123*56
$GPGGA,050051.00,3542.76519374,N,05121.41647526,E,2,37,0.5,1256.197,M,-14.898,M,5.0,0123*50
$GPGGA,050052.00,3542.76519266,N,05121.41647494,E,2,37,0.5,1256.193,M,-14.898,M,5.0,0123*5D
$GPGGA,050053.00,3542.76519197,N,05121.41647460,E,2,37,0.5,1256.189,M,-14.898,M,5.0,0123*51
$GPGGA,050054.00,3542.76519154,N,05121.41647445,E,2,37,0.5,1256.188,M,-14.898,M,4.0,0123*5E
$GPGGA,050055.00,3542.76519148,N,05121.41647413,E,2,37,0.5,1256.183,M,-14.898,M,5.0,0123*5B
$GPGGA,050056.00,3542.76519105,N,05121.41647354,E,2,37,0.5,1256.182,M,-14.898,M,5.0,0123*54
$GPGGA,050057.00,3542.76519086,N,05121.41647342,E,2,37,0.5,1256.182,M,-14.898,M,5.0,0123*58
$GPGGA,050058.00,3542.76519017,N,05121.41647340,E,2,37,0.5,1256.179,M,-14.898,M,4.0,0123*58
$GPGGA,050059.00,3542.76519036,N,05121.41647340,E,2,37,0.5,1256.178,M,-14.898,M,5.0,0123*5A
