$GPGGA,050100.00,3542.76519044,N,05121.41647216,E,2,37,0.5,1256.176,M,-14.898,M,5.0,0123*5E
$GPGGA,050101.00,3542.76519044,N,05121.41647157,E,2,37,0.5,1256.172,M,-14.898,M,5.0,0123*5D
$GPGGA,050102.00,3542.76519059,N,05121.41647145,E,2,37,0.5,1256.167,M,-14.898,M,4.0,0123*54
$GPGGA,050103.00,3542.76519057,N,05121.41647115,E,2,37,0.5,1256.163,M,-14.898,M,5.0,0123*5B
$GPGGA,050104.00,3542.76519015,N,05121.41647072,E,2,37,0.5,1256.161,M,-14.898,M,5.0,0123*58
$GPGGA,050105.00,3542.76519013,N,05121.41647078,E,2,37,0.5,1256.161,M,-14.898,M,5.0,0123*55
$GPGGA,050106.00,3542.76519031,N,05121.41646977,E,2,37,0.5,1256.156,M,-14.898,M,4.0,0123*54
$GPGGA,050107.00,3542.76518988,N,05121.41646881,E,2,37,0.5,1256.151,M,-14.898,M,5.0,0123*51
$GPGGA,050108.00,3542.76519002,N,05121.41646947,E,2,37,0.5,1256.148,M,-14.898,M,5.0,0123*57
$GPGGA,050109.00,3542.76519035,N,05121.41646912,E,2,37,0.5,1256.145,M,-14.898,M,5.0,0123*5F
$GPGGA,050110.00,3542.76519074,N,05121.41646914,E,2,37,0.5,1256.145,M,-14.898,M,4.0,0123*55
$GPGGA,050111.00,3542.76519081,N,05121.41646966,E,2,37,0.5,1256.149,M,-14.898,M,5.0,0123*56
$GPGGA,050112.00,3542.76519129,N,05121.41646992,E,2,37,0.5,1256.151,M,-14.898,M,5.0,0123*54
$GPGGA,050113.00,3542.76519198,N,05121.41646969,E,2,37,0.5,1256.149,M,-14.898,M,5.0,0123*52
$GPGGA,050114.00,3542.76519242,N,05121.41646959,E,2,37,0.5,1256.151,M,-14.898,M,4.0,0123*5A
$GPGGA,050115.00,3542.76519279,N,05121.41646918,E,2,37,0.5,1256.150,M,-14.898,M,5.0,0123*56
$GPGGA,050116.00,3542.76519304,N,05121.41646860,E,2,37,0.5,1256.146,M,-14.898,M,5.0,0123*57
$GPGGA,050117.00,3542.76519406,N,05121.41646750,E,2,37,0.5,1256.145,M,-14.898,M,5.0,0123*5C
$GPGGA,050118.00,3542.76519468,N,05121.41646689,E,2,37,0.5,1256.143,M,-14.898,M,4.0,0123*59
$GPGGA,050119.00,3542.76519487,N,05121.41646673,E,2,37,0.5,1256.142,M,-14.898,M,5.0,0123*5C
$GPGGA,050120.00,3542.76519560,N,05121.41646658,E,2,37,0.5,1256.144,M,-14.898,M,5.0,0123*51
$GPGGA,050121.00,3542.76519576,N,05121.41646623,E,2,37,0.5,1256.144,M,-14.898,M,5.0,0123*5B
$GPGGA,050122.00,3542.76519626,N,05121.41646558,E,2,37,0.5,1256.146,M,-14.898,M,4.0,0123*52
$GPGGA,050123.00,3542.76519646,N,05121.41646510,E,2,37,0.5,1256.145,M,-14.898,M,5.0,0123*5B
$GPGGA,050124.00,3542.76519636,N,05121.41646456,E,2,37,0.5,1256.143,M,-14.898,M,5.0,0123*5E
$GPGGA,050125.00,3542.76519687,N,05121.41646431,E,2,37,0.5,1256.143,M,-14.898,M,5.0,0123*54
$GPGGA,050126.00,3542.76519710,N,05121.41646353,E,2,37,0.5,1256.145,M,-14.898,M,4.0,0123*5C
$GPGGA,050127.00,3542.76519729,N,05121.41646375,E,2,37,0.5,1256.148,M,-14.898,M,5.0,0123*5F
$GPGGA,050128.00,3542.76519759,N,05121.41646290,E,2,37,0.5,1256.149,M,-14.898,M,5.0,0123*5C
$GPGGA,050129.00,3542.76519828,N,05121.41646222,E,2,37,0.5,1256.150,M,-14.898,M,5.0,0123*55
$GPGGA,050130.00,3542.76519837,N,05121.41646169,E,2,37,0.5,1256.152,M,-14.898,M,4.0,0123*5C
$GPGGA,050131.00,3542.76519803,N,05121.41646118,E,2,37,0.5,1256.153,M,-14.898,M,5.0,0123*5C
$GPGGA,050132.00,3542.76519790,N,05121.41645972,E,2,37,0.5,1256.152,M,-14.898,M,5.0,0123*5C
$GPGGA,050133.00,3542.76519786,N,05121.41645902,E,2,37,0.5,1256.154,M,-14.898,M,5.0,0123*5B
$GPGGA,050134.00,3542.76519784,N,05121.41645924,E,2,37,0.5,1256.157,M,-14.898,M,4.0,0123*58
$GPGGA,050135.00,3542.76519778,N,05121.41645888,E,2,37,0.5,1256.158,M,-14.898,M,5.0,0123*53
$GPGGA,050136.00,3542.76519839,N,05121.41645831,E,2,37,0.5,1256.161,M,-14.898,M,5.0,0123*52
$GPGGA,050137.00,3542.76519795,N,05121.41645828,E,2,37,0.5,1256.168,M,-14.898,M,5.0,0123*5B
$GPGGA,050138.00,3542.76519728,N,05121.41645853,E,2,37,0.5,1256.172,M,-14.898,M,4.0,0123*54
$GPGGA,050139.00,3542.76519696,N,05121.41645818,E,2,37,0.5,1256.176,M,-14.898,M,5.0,0123*5B
$GPGGA,050140.00,3542.76519621,N,05121.41645830,E,2,37,0.5,1256.182,M,-14.898,M,5.0,0123*58
$GPGGA,050141.00,3542.76519615,N,05121.41645781,E,2,37,0.5,1256.187,M,-14.898,M,5.0,0123*5E
$GPGGA,050142.00,3542.76519534,N,05121.41645760,E,2,37,0.5,1256.193,M,-14.898,M,4.0,0123*56
$GPGGA,050143.00,3542.76519545,N,05121.41645705,E,2,37,0.5,1256.200,M,-14.898,M,5.0,0123*5A
$GPGGA,050144.00,3542.76519491,N,05121.41645713,E,2,37,0.5,1256.207,M,-14.898,M,5.0,0123*55
$GPGGA,050145.00,3542.76519581,N,05121.41645652,E,2,37,0.5,1256.213,M,-14.898,M,5.0,0123*55
$GPGGA,050146.00,3542.76519609,N,05121.41645553,E,2,37,0.5,1256.219,M,-14.898,M,4.0,0123*5C
$GPGGA,050147.00,3542.76519579,N,05121.41645498,E,2,37,0.5,1256.222,M,-14.898,M,5.0,0123*56
$GPGGA,050148.00,3542.76519581,N,05121.41645425,E,2,37,0.5,1256.226,M,-14.898,M,5.0,0123*5C
$GPGGA,050149.00,3542.76519612,N,05121.41645379,E,2,37,0.5,1256.228,M,-14.898,M,5.0,0123*54
$GPGGA,050150.00,3542.76519654,N,05121.41645349,E,2,37,0.5,1256.232,M,-14.898,M,4.0,0123*57
$GPGGA,050151.00,3542.76519638,N,05121.41645306,E,2,37,0.5,1256.236,M,-14.898,M,5.0,0123*52
$GPGGA,050152.00,3542.76519608,N,05121.41645273,E,2,37,0.5,1256.238,M,-14.898,M,5.0,0123*5F
$GPGGA,050153.00,3542.76519638,N,05121.41645198,E,2,37,0.5,1256.242,M,-14.898,M,5.0,0123*56
$GPGGA,050154.00,3542.76519674,N,05121.41645109,E,2,37,0.5,1256.245,M,-14.898,M,4.0,0123*57
$GPGGA,050155.00,3542.76519747,N,05121.41645016,E,2,37,0.5,1256.245,M,-14.898,M,5.0,0123*59
$GPGGA,050156.00,3542.76519883,N,05121.41644914,E,2,37,0.5,1256.247,M,-14.898,M,5.0,0123*55
$GPGGA,050157.00,3542.76519944,N,05121.41644831,E,2,37,0.5,1256.249,M,-14.898,M,5.0,0123*56
$GPGGA,050158.00,3542.76519997,N,05121.41644764,E,2,37,0.5,1256.249,M,-14.898,M,4.0,0123*59
$GPGGA,050159.00,3542.76519997,N,05121.41644755,E,2,37,0.5,1256.252,M,-14.898,M,5.0,0123*51
