$GPGGA,050200.00,3542.76520015,N,05121.41644769,E,2,37,0.5,1256.254,M,-14.898,M,5.0,0123*5E
$GPGGA,050201.00,3542.76520058,N,05121.41644705,E,2,37,0.5,1256.259,M,-14.898,M,5.0,0123*51
$GPGGA,050202.00,3542.76520110,N,05121.41644710,E,2,37,0.5,1256.264,M,-14.898,M,4.0,0123*54
$GPGGA,050203.00,3542.76520144,N,05121.41644601,E,2,37,0.5,1256.264,M,-14.898,M,5.0,0123*54
$GPGGA,050204.00,3542.76520187,N,05121.41644645,E,2,37,0.5,1256.272,M,-14.898,M,5.0,0123*5B
$GPGGA,050205.00,3542.76520193,N,05121.41644683,E,2,37,0.5,1256.279,M,-14.898,M,5.0,0123*5E
$GPGGA,050206.00,3542.76520272,N,05121.41644669,E,2,37,0.5,1256.284,M,-14.898,M,4.0,0123*56
$GPGGA,050207.00,3542.76520297,N,05121.41644712,E,2,37,0.5,1256.291,M,-14.898,M,5.0,0123*54
$GPGGA,050208.00,3542.76520323,N,05121.41644623,E,2,37,0.5,1256.295,M,-14.898,M,5.0,0123*52
$GPGGA,050209.00,3542.76520428,N,05121.41644488,E,2,37,0.5,1256.297,M,-14.898,M,5.0,0123*5E
$GPGGA,050210.00,3542.76520509,N,05121.41644468,E,2,37,0.5,1256.301,M,-14.898,M,4.0,0123*55
$GPGGA,050211.00,3542.76520541,N,05121.41644412,E,2,37,0.5,1256.307,M,-14.898,M,5.0,0123*52
$GPGGA,050212.00,3542.76520576,N,05121.41644419,E,2,37,0.5,1256.314,M,-14.898,M,5.0,0123*5C
$GPGGA,050213.00,3542.76520607,N,05121.41644408,E,2,37,0.5,1256.318,M,-14.898,M,5.0,0123*54
$GPGGA,050214.00,3542.76520634,N,05121.41644343,E,2,37,0.5,1256.319,M,-14.898,M,4.0,0123*5B
$GPGGA,050215.00,3542.76520629,N,05121.41644318,E,2,37,0.5,1256.323,M,-14.898,M,5.0,0123*50
$GPGGA,050216.00,3542.76520724,N,05121.41644238,E,2,37,0.5,1256.329,M,-14.898,M,5.0,0123*56
$GPGGA,050217.00,3542.76520728,N,05121.41644216,E,2,37,0.5,1256.333,M,-14.898,M,5.0,0123*5C
$GPGGA,050218.00,3542.76520738,N,05121.41644104,E,2,37,0.5,1256.333,M,-14.898,M,4.0,0123*53
$GPGGA,050219.00,3542.76520783,N,05121.41643965,E,2,37,0.5,1256.336,M,-14.898,M,5.0,0123*5E
$GPGGA,050220.00,3542.76520806,N,05121.41643838,E,2,37,0.5,1256.339,M,-14.898,M,5.0,0123*50
$GPGGA,050221.00,3542.76520839,N,05121.41643737,E,2,37,0.5,1256.343,M,-14.898,M,5.0,0123*50
$GPGGA,050222.00,3542.76520847,N,05121.41643635,E,2,37,0.5,1256.345,M,-14.898,M,4.0,0123*5E
$GPGGA,050223.00,3542.76520879,N,05121.41643481,E,2,37,0.5,1256.347,M,-14.898,M,5.0,0123*5C
$GPGGA,050224.00,3542.76520946,N,05121.41643375,E,2,37,0.5,1256.349,M,-14.898,M,5.0,0123*54
$GPGGA,050225.00,3542.76520957,N,05121.41643200,E,2,37,0.5,1256.350,M,-14.898,M,5.0,0123*5E
$GPGGA,050226.00,3542.76520967,N,05121.41643108,E,2,37,0.5,1256.351,M,-14.898,M,4.0,0123*55
$GPGGA,050227.00,3542.76520941,N,05121.41642974,E,2,37,0.5,1256.353,M,-14.898,M,5.0,0123*51
$GPGGA,050228.00,3542.76520899,N,05121.41642843,E,2,37,0.5,1256.354,M,-14.898,M,5.0,0123*58
$GPGGA,050229.00,3542.76520906,N,05121.41642675,E,2,37,0.5,1256.355,M,-14.898,M,5.0,0123*54
$GPGGA,050230.00,3542.76520898,N,05121.41642574,E,2,37,0.5,1256.357,M,-14.898,M,4.0,0123*5B
$GPGGA,050231.00,3542.76520857,N,05121.41642410,E,2,37,0.5,1256.359,M,-14.898,M,5.0,0123*55
$GPGGA,050232.00,3542.76520904,N,05121.41642288,E,2,37,0.5,1256.363,M,-14.898,M,5.0,0123*5F
$GPGGA,050233.00,3542.76520849,N,05121.41642148,E,2,37,0.5,1256.364,M,-14.898,M,5.0,0123*5E
$GPGGA,050234.00,3542.76520864,N,05121.41642055,E,2,37,0.5,1256.364,M,-14.898,M,4.0,0123*5A
$GPGGA,050235.00,3542.76520881,N,05121.41641916,E,2,37,0.5,1256.366,M,-14.898,M,5.0,0123*5E
$GPGGA,050236.00,3542.76520908,N,05121.41641789,E,2,37,0.5,1256.367,M,-14.898,M,5.0,0123*54
$GPGGA,050237.00,3542.76520898,N,05121.41641680,E,2,37,0.5,1256.370,M,-14.898,M,5.0,0123*53
$GPGGA,050238.00,3542.76520902,N,05121.41641584,E,2,37,0.5,1256.372,M,-14.898,M,4.0,0123*5A
$GPGGA,050239.00,3542.76520934,N,05121.41641536,E,2,37,0.5,1256.375,M,-14.898,M,5.0,0123*51
$GPGGA,050240.00,3542.76520938,N,05121.41641461,E,2,37,0.5,1256.379,M,-14.898,M,5.0,0123*5C
$GPGGA,050241.00,3542.76521019,N,05121.41641393,E,2,37,0.5,1256.383,M,-14.898,M,5.0,0123*59
$GPGGA,050242.00,3542.76521001,N,05121.41641274,E,2,37,0.5,1256.385,M,-14.898,M,4.0,0123*5C
$GPGGA,050243.00,3542.76520971,N,05121.41641201,E,2,37,0.5,1256.389,M,-14.898,M,5.0,0123*5D
$GPGGA,050244.00,3542.76521005,N,05121.41641087,E,2,37,0.5,1256.394,M,-14.898,M,5.0,0123*51
$GPGGA,050245.00,3542.76521041,N,05121.41641020,E,2,37,0.5,1256.397,M,-14.898,M,5.0,0123*5E
$GPGGA,050246.00,3542.76521070,N,05121.41640922,E,2,37,0.5,1256.401,M,-14.898,M,4.0,0123*5C
$GPGGA,050247.00,3542.76521071,N,05121.41640825,E,2,37,0.5,1256.404,M,-14.898,M,5.0,0123*5E
$GPGGA,050248.00,3542.76521114,N,05121.41640693,E,2,37,0.5,1256.408,M,-14.898,M,5.0,0123*5C
$GPGGA,050249.00,3542.76521128,N,05121.41640614,E,2,37,0.5,1256.411,M,-14.898,M,5.0,0123*55
$GPGGA,050250.00,3542.76521152,N,05121.41640507,E,2,37,0.5,1256.414,M,-14.898,M,4.0,0123*55
$GPGGA,050251.00,3542.76521202,N,05121.41640382,E,2,37,0.5,1256.418,M,-14.898,M,5.0,0123*54
$GPGGA,050252.00,3542.76521254,N,05121.41640302,E,2,37,0.5,1256.422,M,-14.898,M,5.0,0123*55
$GPGGA,050253.00,3542.76521268,N,05121.41640178,E,2,37,0.5,1256.426,M,-14.898,M,5.0,0123*50
$GPGGA,050254.00,3542.76521258,N,05121.41640044,E,2,37,0.5,1256.427,M,-14.898,M,4.0,0123*5A
$GPGGA,050255.00,3542.76521224,N,05121.41639986,E,2,37,0.5,1256.430,M,-14.898,M,5.0,0123*5E
$GPGGA,050256.00,3542.76521313,N,05121.41639902,E,2,37,0.5,1256.436,M,-14.898,M,5.0,0123*52
$GPGGA,050257.00,3542.76521326,N,05121.41639772,E,2,37,0.5,1256.440,M,-14.898,M,5.0,0123*5D
$GPGGA,050258.00,3542.76521365,N,05121.41639640,E,2,37,0.5,1256.445,M,-14.898,M,4.0,0123*51
$GPGGA,050259.00,3542.76521398,N,05121.41639559,E,2,37,0.5,1256.449,M,-14.898,M,5.0,0123*54
