$GPGGA,050400.00,3542.76520321,N,05121.41635256,E,2,37,0.5,1256.631,M,-14.898,M,5.0,0123*54
$GPGGA,050401.00,3542.76520300,N,05121.41635177,E,2,37,0.5,1256.631,M,-14.898,M,5.0,0123*56
$GPGGA,050402.00,3542.76520201,N,05121.41635134,E,2,37,0.5,1256.632,M,-14.898,M,4.0,0123*50
$GPGGA,050403.00,3542.76520161,N,05121.41635081,E,2,37,0.5,1256.634,M,-14.898,M,5.0,0123*5C
$GPGGA,050404.00,3542.76520118,N,05121.41635025,E,2,37,0.5,1256.636,M,-14.898,M,5.0,0123*59
$GPGGA,050405.00,3542.76520053,N,05121.41634971,E,2,37,0.5,1256.637,M,-14.898,M,5.0,0123*5E
$GPGGA,050406.00,3542.76519986,N,05121.41634867,E,2,37,0.5,1256.639,M,-14.898,M,4.0,0123*5F
$GPGGA,050407.00,3542.76519943,N,05121.41634846,E,2,37,0.5,1256.640,M,-14.898,M,5.0,0123*5B
$GPGGA,050408.00,3542.76519933,N,05121.41634811,E,2,37,0.5,1256.642,M,-14.898,M,5.0,0123*53
$GPGGA,050409.00,3542.76519811,N,05121.41634747,E,2,37,0.5,1256.645,M,-14.898,M,5.0,0123*58
$GPGGA,050410.00,3542.76519760,N,05121.41634743,E,2,37,0.5,1256.647,M,-14.898,M,4.0,0123*5E
$GPGGA,050411.00,3542.76519670,N,05121.41634677,E,2,37,0.5,1256.645,M,-14.898,M,5.0,0123*5A
$GPGGA,050412.00,3542.76519652,N,05121.41634648,E,2,37,0.5,1256.646,M,-14.898,M,5.0,0123*56
$GPGGA,050413.00,3542.76519635,N,05121.41634621,E,2,37,0.5,1256.648,M,-14.898,M,5.0,0123*57
$GPGGA,050414.00,3542.76519589,N,05121.41634599,E,2,37,0.5,1256.651,M,-14.898,M,4.0,0123*5D
$GPGGA,050415.00,3542.76519509,N,05121.41634617,E,2,37,0.5,1256.656,M,-14.898,M,5.0,0123*57
$GPGGA,050416.00,3542.76519451,N,05121.41634581,E,2,37,0.5,1256.657,M,-14.898,M,5.0,0123*55
$GPGGA,050417.00,3542.76519385,N,05121.41634570,E,2,37,0.5,1256.658,M,-14.898,M,5.0,0123*5B
$GPGGA,050418.00,3542.76519341,N,05121.41634624,E,2,37,0.5,1256.660,M,-14.898,M,4.0,0123*54
$GPGGA,050419.00,3542.76519318,N,05121.41634586,E,2,37,0.5,1256.663,M,-14.898,M,5.0,0123*50
$GPGGA,050420.00,3542.76519269,N,05121.41634535,E,2,37,0.5,1256.664,M,-14.898,M,5.0,0123*52
$GPGGA,050421.00,3542.76519203,N,05121.41634525,E,2,37,0.5,1256.665,M,-14.898,M,5.0,0123*5F
$GPGGA,050422.00,3542.76519100,N,05121.41634547,E,2,37,0.5,1256.666,M,-14.898,M,4.0,0123*5A
$GPGGA,050423.00,3542.76519016,N,05121.41634576,E,2,37,0.5,1256.666,M,-14.898,M,5.0,0123*5E
$GPGGA,050424.00,3542.76518976,N,05121.41634519,E,2,37,0.5,1256.668,M,-14.898,M,5.0,0123*50
$GPGGA,050425.00,3542.76518896,N,05121.41634477,E,2,37,0.5,1256.669,M,-14.898,M,5.0,0123*56
$GPGGA,050426.00,3542.76518811,N,05121.41634422,E,2,37,0.5,1256.670,M,-14.898,M,4.0,0123*53
$GPGGA,050427.00,3542.76518709,N,05121.41634410,E,2,37,0.5,1256.670,M,-14.898,M,5.0,0123*54
$GPGGA,050428.00,3542.76518682,N,05121.41634347,E,2,37,0.5,1256.670,M,-14.898,M,5.0,0123*5C
$GPGGA,050429.00,3542.76518565,N,05121.41634294,E,2,37,0.5,1256.672,M,-14.898,M,5.0,0123*5A
$GPGGA,050430.00,3542.76518439,N,05121.41634279,E,2,37,0.5,1256.672,M,-14.898,M,4.0,0123*58
$GPGGA,050431.00,3542.76518341,N,05121.41634211,E,2,37,0.5,1256.674,M,-14.898,M,5.0,0123*58
$GPGGA,050432.00,3542.76518280,N,05121.41634112,E,2,37,0.5,1256.675,M,-14.898,M,5.0,0123*56
$GPGGA,050433.00,3542.76518215,N,05121.41634133,E,2,37,0.5,1256.677,M,-14.898,M,5.0,0123*5A
$GPGGA,050434.00,3542.76518109,N,05121.41634156,E,2,37,0.5,1256.678,M,-14.898,M,4.0,0123*5E
$GPGGA,050435.00,3542.76518013,N,05121.41634186,E,2,37,0.5,1256.679,M,-14.898,M,5.0,0123*58
$GPGGA,050436.00,3542.76517928,N,05121.41634214,E,2,37,0.5,1256.678,M,-14.898,M,5.0,0123*5C
$GPGGA,050437.00,3542.76517824,N,05121.41634199,E,2,37,0.5,1256.677,M,-14.898,M,5.0,0123*59
$GPGGA,050438.00,3542.76517784,N,05121.41634234,E,2,37,0.5,1256.679,M,-14.898,M,4.0,0123*58
$GPGGA,050439.00,3542.76517742,N,05121.41634297,E,2,37,0.5,1256.681,M,-14.898,M,5.0,0123*5C
$GPGGA,050440.00,3542.76517673,N,05121.41634352,E,2,37,0.5,1256.683,M,-14.898,M,5.0,0123*5B
$GPGGA,050441.00,3542.76517611,N,05121.41634348,E,2,37,0.5,1256.685,M,-14.898,M,5.0,0123*53
$GPGGA,050442.00,3542.76517510,N,05121.41634358,E,2,37,0.5,1256.685,M,-14.898,M,4.0,0123*52
$GPGGA,050443.00,3542.76517431,N,05121.41634344,E,2,37,0.5,1256.686,M,-14.898,M,5.0,0123*5E
$GPGGA,050444.00,3542.76517404,N,05121.41634372,E,2,37,0.5,1256.687,M,-14.898,M,5.0,0123*5B
$GPGGA,050445.00,3542.76517345,N,05121.41634322,E,2,37,0.5,1256.689,M,-14.898,M,5.0,0123*53
$GPGGA,050446.00,3542.76517271,N,05121.41634309,E,2,37,0.5,1256.690,M,-14.898,M,4.0,0123*56
$GPGGA,050447.00,3542.76517240,N,05121.41634296,E,2,37,0.5,1256.690,M,-14.898,M,5.0,0123*53
$GPGGA,050448.00,3542.76517192,N,05121.41634292,E,2,37,0.5,1256.691,M,-14.898,M,5.0,0123*55
$GPGGA,050449.00,3542.76517155,N,05121.41634342,E,2,37,0.5,1256.691,M,-14.898,M,5.0,0123*53
$GPGGA,050450.00,3542.76517102,N,05121.41634389,E,2,37,0.5,1256.688,M,-14.898,M,4.0,0123*57
$GPGGA,050451.00,3542.76517067,N,05121.41634357,E,2,37,0.5,1256.687,M,-14.898,M,5.0,0123*59
$GPGGA,050452.00,3542.76516992,N,05121.41634359,E,2,37,0.5,1256.686,M,-14.898,M,5.0,0123*57
$GPGGA,050453.00,3542.76516941,N,05121.41634427,E,2,37,0.5,1256.685,M,-14.898,M,5.0,0123*55
$GPGGA,050454.00,3542.76516927,N,05121.41634503,E,2,37,0.5,1256.684,M,-14.898,M,4.0,0123*55
$GPGGA,050455.00,3542.76516887,N,05121.41634547,E,2,37,0.5,1256.684,M,-14.898,M,5.0,0123*5E
$GPGGA,050456.00,3542.76516881,N,05121.41634590,E,2,37,0.5,1256.686,M,-14.898,M,5.0,0123*53
$GPGGA,050457.00,3542.76516874,N,05121.41634573,E,2,37,0.5,1256.685,M,-14.898,M,5.0,0123*56
$GPGGA,050458.00,3542.76516879,N,05121.41634606,E,2,37,0.5,1256.684,M,-14.898,M,4.0,0123*55
$GPGGA,050459.00,3542.76516872,N,05121.41634671,E,2,37,0.5,1256.685,M,-14.898,M,5.0,0123*5F
