$GPGGA,050700.00,3542.76515350,N,05121.41635933,E,2,37,0.4,1256.738,M,-14.898,M,5.0,0123*56
$GPGGA,050701.00,3542.76515367,N,05121.41635928,E,2,37,0.4,1256.739,M,-14.898,M,5.0,0123*58
$GPGGA,050702.00,3542.76515412,N,05121.41635871,E,2,37,0.4,1256.743,M,-14.898,M,4.0,0123*5F
$GPGGA,050703.00,3542.76515442,N,05121.41635820,E,2,37,0.4,1256.747,M,-14.898,M,5.0,0123*5A
$GPGGA,050704.00,3542.76515467,N,05121.41635807,E,2,37,0.4,1256.751,M,-14.898,M,5.0,0123*58
$GPGGA,050705.00,3542.76515481,N,05121.41635814,E,2,37,0.4,1256.753,M,-14.898,M,5.0,0123*51
$GPGGA,050706.00,3542.76515439,N,05121.41635823,E,2,37,0.4,1256.755,M,-14.898,M,4.0,0123*52
$GPGGA,050707.00,3542.76515450,N,05121.41635794,E,2,37,0.4,1256.758,M,-14.898,M,5.0,0123*53
$GPGGA,050708.00,3542.76515413,N,05121.41635760,E,2,37,0.4,1256.760,M,-14.898,M,5.0,0123*5B
$GPGGA,050709.00,3542.76515409,N,05121.41635693,E,2,37,0.4,1256.762,M,-14.898,M,5.0,0123*5E
$GPGGA,050710.00,3542.76515435,N,05121.41635624,E,2,37,0.4,1256.765,M,-14.898,M,4.0,0123*53
$GPGGA,050711.00,3542.76515418,N,05121.41635527,E,2,37,0.4,1256.764,M,-14.898,M,5.0,0123*5D
$GPGGA,050712.00,3542.76515390,N,05121.41635464,E,2,37,0.4,1256.766,M,-14.898,M,5.0,0123*5D
$GPGGA,050713.00,3542.76515362,N,05121.41635357,E,2,37,0.4,1256.765,M,-14.898,M,5.0,0123*55
$GPGGA,050714.00,3542.76515399,N,05121.41635182,E,2,37,0.4,1256.764,M,-14.898,M,4.0,0123*5C
$GPGGA,050715.00,3542.76515428,N,05121.41635044,E,2,37,0.4,1256.764,M,-14.898,M,5.0,0123*5A
$GPGGA,050716.00,3542.76515399,N,05121.41634890,E,2,37,0.4,1256.764,M,-14.898,M,5.0,0123*54
$GPGGA,050717.00,3542.76515356,N,05121.41634764,E,2,37,0.4,1256.765,M,-14.898,M,5.0,0123*53
$GPGGA,050718.00,3542.76515300,N,05121.41634685,E,2,37,0.4,1256.767,M,-14.898,M,4.0,0123*52
$GPGGA,050719.00,3542.76515265,N,05121.41634572,E,2,37,0.4,1256.766,M,-14.898,M,5.0,0123*5A
$GPGGA,050720.00,3542.76515266,N,05121.41634500,E,2,37,0.4,1256.768,M,-14.898,M,5.0,0123*58
$GPGGA,050721.00,3542.76515256,N,05121.41634380,E,2,37,0.4,1256.769,M,-14.898,M,5.0,0123*55
$GPGGA,050722.00,3542.76515283,N,05121.41634323,E,2,37,0.4,1256.771,M,-14.898,M,4.0,0123*5F
$GPGGA,050723.00,3542.76515295,N,05121.41634268,E,2,37,0.4,1256.775,M,-14.898,M,5.0,0123*52
$GPGGA,050724.00,3542.76515196,N,05121.41634222,E,2,37,0.4,1256.776,M,-14.898,M,5.0,0123*58
$GPGGA,050725.00,3542.76515173,N,05121.41634168,E,2,37,0.4,1256.777,M,-14.898,M,5.0,0123*5E
$GPGGA,050726.00,3542.76515126,N,05121.41634125,E,2,37,0.4,1256.781,M,-14.898,M,4.0,0123*5C
$GPGGA,050727.00,3542.76515080,N,05121.41634099,E,2,37,0.4,1256.784,M,-14.898,M,5.0,0123*52
$GPGGA,050728.00,3542.76515065,N,05121.41634062,E,2,37,0.4,1256.785,M,-14.898,M,5.0,0123*53
$GPGGA,050729.00,3542.76515048,N,05121.41634050,E,2,37,0.4,1256.788,M,-14.898,M,5.0,0123*51
$GPGGA,050730.00,3542.76515045,N,05121.41634082,E,2,37,0.4,1256.789,M,-14.898,M,4.0,0123*5B
$GPGGA,050731.00,3542.76515084,N,05121.41634054,E,2,37,0.4,1256.791,M,-14.898,M,5.0,0123*54
$GPGGA,050732.00,3542.76515094,N,05121.41634085,E,2,37,0.4,1256.796,M,-14.898,M,5.0,0123*5D
$GPGGA,050733.00,3542.76515126,N,05121.41634052,E,2,37,0.4,1256.797,M,-14.898,M,5.0,0123*5F
$GPGGA,050734.00,3542.76515204,N,05121.41634031,E,2,37,0.4,1256.799,M,-14.898,M,4.0,0123*51
$GPGGA,050735.00,3542.76515267,N,05121.41633993,E,2,37,0.4,1256.798,M,-14.898,M,5.0,0123*53
$GPGGA,050736.00,3542.76515346,N,05121.41633970,E,2,37,0.4,1256.799,M,-14.898,M,5.0,0123*5E
$GPGGA,050737.00,3542.76515401,N,05121.41633905,E,2,37,0.4,1256.800,M,-14.898,M,5.0,0123*56
$GPGGA,050738.00,3542.76515502,N,05121.41633897,E,2,37,0.4,1256.801,M,-14.898,M,4.0,0123*51
$GPGGA,050739.00,3542.76515550,N,05121.41633921,E,2,37,0.4,1256.803,M,-14.898,M,5.0,0123*58
$GPGGA,050740.00,3542.76515648,N,05121.41634017,E,2,37,0.4,1256.807,M,-14.898,M,5.0,0123*53
$GPGGA,050741.00,3542.76515667,N,05121.41634100,E,2,37,0.4,1256.809,M,-14.898,M,5.0,0123*56
$GPGGA,050742.00,3542.76515697,N,05121.41634211,E,2,37,0.4,1256.813,M,-14.898,M,4.0,0123*53
$GPGGA,050743.00,3542.76515767,N,05121.41634355,E,2,37,0.4,1256.816,M,-14.898,M,5.0,0123*59
$GPGGA,050744.00,3542.76515762,N,05121.41634429,E,2,37,0.4,1256.818,M,-14.898,M,5.0,0123*59
$GPGGA,050745.00,3542.76515812,N,05121.41634488,E,2,37,0.4,1256.819,M,-14.898,M,5.0,0123*5A
$GPGGA,050746.00,3542.76515839,N,05121.41634531,E,2,37,0.4,1256.819,M,-14.898,M,4.0,0123*52
$GPGGA,050747.00,3542.76515942,N,05121.41634673,E,2,37,0.4,1256.824,M,-14.898,M,5.0,0123*54
$GPGGA,050748.00,3542.76516023,N,05121.41634696,E,2,37,0.4,1256.827,M,-14.898,M,5.0,0123*5E
$GPGGA,050749.00,3542.76516048,N,05121.41634815,E,2,37,0.4,1256.836,M,-14.898,M,5.0,0123*57
$GPGGA,050750.00,3542.76516085,N,05121.41634927,E,2,37,0.4,1256.839,M,-14.898,M,4.0,0123*50
$GPGGA,050751.00,3542.76516097,N,05121.41635046,E,2,37,0.4,1256.842,M,-14.898,M,5.0,0123*50
$GPGGA,050752.00,3542.76516142,N,05121.41635140,E,2,37,0.4,1256.845,M,-14.898,M,5.0,0123*5A
$GPGGA,050753.00,3542.76516246,N,05121.41635136,E,2,37,0.4,1256.848,M,-14.898,M,5.0,0123*50
$GPGGA,050754.00,3542.76516277,N,05121.41635216,E,2,37,0.4,1256.852,M,-14.898,M,4.0,0123*5E
$GPGGA,050755.00,3542.76516264,N,05121.41635361,E,2,37,0.4,1256.856,M,-14.898,M,5.0,0123*59
$GPGGA,050756.00,3542.76516275,N,05121.41635422,E,2,37,0.4,1256.857,M,-14.898,M,5.0,0123*5B
$GPGGA,050757.00,3542.76516282,N,05121.41635515,E,2,37,0.4,1256.860,M,-14.898,M,5.0,0123*53
$GPGGA,050758.00,3542.76516355,N,05121.41635658,E,2,37,0.4,1256.865,M,-14.898,M,4.0,0123*59
$GPGGA,050759.00,3542.76516422,N,05121.41635729,E,2,37,0.4,1256.870,M,-14.898,M,5.0,0123*5D
