$GPGGA,051000.00,3542.76519674,N,05121.41635074,E,2,38,0.4,1257.168,M,-14.898,M,5.0,0123*58
$GPGGA,051001.00,3542.76519657,N,05121.41635124,E,2,38,0.4,1257.171,M,-14.898,M,4.0,0123*55
$GPGGA,051002.00,3542.76519627,N,05121.41635187,E,2,38,0.4,1257.175,M,-14.898,M,5.0,0123*5D
$GPGGA,051003.00,3542.76519624,N,05121.41635299,E,2,38,0.4,1257.180,M,-14.898,M,5.0,0123*59
$GPGGA,051004.00,3542.76519629,N,05121.41635438,E,2,38,0.4,1257.185,M,-14.898,M,5.0,0123*5B
$GPGGA,051005.00,3542.76519612,N,05121.41635503,E,2,38,0.4,1257.191,M,-14.898,M,4.0,0123*5F
$GPGGA,051006.00,3542.76519622,N,05121.41635593,E,2,38,0.4,1257.199,M,-14.898,M,5.0,0123*5F
$GPGGA,051007.00,3542.76519604,N,05121.41635668,E,2,38,0.4,1257.202,M,-14.898,M,5.0,0123*5C
$GPGGA,051008.00,3542.76519606,N,05121.41635662,E,2,38,0.4,1257.202,M,-14.898,M,5.0,0123*5B
$GPGGA,051009.00,3542.76519638,N,05121.41635756,E,2,38,0.4,1257.204,M,-14.898,M,4.0,0123*56
$GPGGA,051010.00,3542.76519756,N,05121.41635765,E,2,38,0.4,1257.209,M,-14.898,M,5.0,0123*5B
$GPGGA,051011.00,3542.76519803,N,05121.41635759,E,2,38,0.4,1257.213,M,-14.898,M,5.0,0123*51
$GPGGA,051012.00,3542.76519838,N,05121.41635729,E,2,38,0.4,1257.215,M,-14.898,M,5.0,0123*5B
$GPGGA,051013.00,3542.76519865,N,05121.41635741,E,2,38,0.4,1257.217,M,-14.898,M,4.0,0123*5F
$GPGGA,051014.00,3542.76519935,N,05121.41635641,E,2,38,0.4,1257.217,M,-14.898,M,5.0,0123*5C
$GPGGA,051015.00,3542.76520006,N,05121.41635603,E,2,38,0.4,1257.219,M,-14.898,M,5.0,0123*56
$GPGGA,051016.00,3542.76520103,N,05121.41635549,E,2,38,0.4,1257.221,M,-14.898,M,5.0,0123*57
$GPGGA,051017.00,3542.76520220,N,05121.41635465,E,2,38,0.4,1257.218,M,-14.898,M,4.0,0123*50
$GPGGA,051018.00,3542.76520314,N,05121.41635350,E,2,38,0.4,1257.216,M,-14.898,M,5.0,0123*57
$GPGGA,051019.00,3542.76520394,N,05121.41635259,E,2,38,0.4,1257.216,M,-14.898,M,5.0,0123*56
$GPGGA,051020.00,3542.76520457,N,05121.41635197,E,2,38,0.4,1257.217,M,-14.898,M,5.0,0123*54
$GPGGA,051021.00,3542.76520568,N,05121.41635088,E,2,38,0.4,1257.217,M,-14.898,M,4.0,0123*56
$GPGGA,051022.00,3542.76520672,N,05121.41634952,E,2,38,0.4,1257.214,M,-14.898,M,5.0,0123*50
$GPGGA,051023.00,3542.76520795,N,05121.41634782,E,2,38,0.4,1257.208,M,-14.898,M,5.0,0123*57
$GPGGA,051024.00,3542.76520887,N,05121.41634533,E,2,38,0.4,1257.202,M,-14.898,M,5.0,0123*5E
$GPGGA,051025.00,3542.76520940,N,05121.41634283,E,2,38,0.4,1257.196,M,-14.898,M,4.0,0123*56
$GPGGA,051026.00,3542.76521000,N,05121.41634126,E,2,38,0.4,1257.195,M,-14.898,M,5.0,0123*57
$GPGGA,051027.00,3542.76521068,N,05121.41633928,E,2,38,0.4,1257.192,M,-14.898,M,5.0,0123*5E
$GPGGA,051028.00,3542.76521182,N,05121.41633663,E,2,38,0.4,1257.185,M,-14.898,M,5.0,0123*52
$GPGGA,051029.00,3542.76521281,N,05121.41633343,E,2,38,0.4,1257.176,M,-14.898,M,4.0,0123*59
$GPGGA,051030.00,3542.76521361,N,05121.41633163,E,2,38,0.4,1257.175,M,-14.898,M,5.0,0123*5C
$GPGGA,051031.00,3542.76521420,N,05121.41633046,E,2,38,0.4,1257.174,M,-14.898,M,5.0,0123*58
$GPGGA,051032.00,3542.76521438,N,05121.41632890,E,2,38,0.4,1257.173,M,-14.898,M,5.0,0123*57
$GPGGA,051033.00,3542.76521510,N,05121.41632711,E,2,38,0.4,1257.172,M,-14.898,M,4.0,0123*5B
$GPGGA,051034.00,3542.76521626,N,05121.41632521,E,2,38,0.4,1257.170,M,-14.898,M,5.0,0123*58
$GPGGA,051035.00,3542.76521725,N,05121.41632268,E,2,38,0.4,1257.165,M,-14.898,M,5.0,0123*55
$GPGGA,051036.00,3542.76521822,N,05121.41632138,E,2,38,0.4,1257.163,M,-14.898,M,5.0,0123*5E
$GPGGA,051037.00,3542.76521959,N,05121.41631990,E,2,38,0.4,1257.165,M,-14.898,M,4.0,0123*5C
$GPGGA,051038.00,3542.76522023,N,05121.41631794,E,2,38,0.4,1257.163,M,-14.898,M,5.0,0123*59
$GPGGA,051039.00,3542.76522112,N,05121.41631589,E,2,38,0.4,1257.161,M,-14.898,M,5.0,0123*57
$GPGGA,051040.00,3542.76522152,N,05121.41631432,E,2,38,0.4,1257.159,M,-14.898,M,5.0,0123*57
$GPGGA,051041.00,3542.76522268,N,05121.41631332,E,2,38,0.4,1257.160,M,-14.898,M,4.0,0123*50
$GPGGA,051042.00,3542.76522402,N,05121.41631209,E,2,38,0.4,1257.161,M,-14.898,M,5.0,0123*50
$GPGGA,051043.00,3542.76522521,N,05121.41631143,E,2,38,0.4,1257.161,M,-14.898,M,5.0,0123*5C
$GPGGA,051044.00,3542.76522577,N,05121.41631053,E,2,38,0.4,1257.162,M,-14.898,M,5.0,0123*5B
$GPGGA,051045.00,3542.76522622,N,05121.41630923,E,2,38,0.4,1257.160,M,-14.898,M,4.0,0123*55
$GPGGA,051046.00,3542.76522757,N,05121.41630858,E,2,38,0.4,1257.163,M,-14.898,M,5.0,0123*5A
$GPGGA,051047.00,3542.76522831,N,05121.41630851,E,2,38,0.4,1257.167,M,-14.898,M,5.0,0123*59
$GPGGA,051048.00,3542.76522889,N,05121.41630840,E,2,38,0.4,1257.168,M,-14.898,M,5.0,0123*5A
$GPGGA,051049.00,3542.76522980,N,05121.41630824,E,2,38,0.4,1257.169,M,-14.898,M,4.0,0123*51
$GPGGA,051050.00,3542.76523001,N,05121.41630784,E,2,38,0.4,1257.168,M,-14.898,M,5.0,0123*5D
$GPGGA,051051.00,3542.76523022,N,05121.41630720,E,2,38,0.4,1257.166,M,-14.898,M,5.0,0123*5D
$GPGGA,051052.00,3542.76523076,N,05121.41630729,E,2,38,0.4,1257.171,M,-14.898,M,5.0,0123*50
$GPGGA,051053.00,3542.76523058,N,05121.41630714,E,2,38,0.4,1257.172,M,-14.898,M,4.0,0123*51
